$GPGSV,3,1,10,02,54,073,,06,33,122,,12,61,178,,14,07,224,*76
$GPGSV,3,2,10,15,00,000,,19,11,132,,24,63,357,,25,36,230,*74
$GPGSV,3,3,10,29,33,296,,32,13,241,*7A
$GLGSV,2,1,07,78,09,216,,86,37,150,,77,55,195,,76,52,064,*65
$GLGSV,2,2,07,75,06,047,,88,28,324,,87,78,306,*5F
$GPGSA,A,1,,,,,,,,,,,,,,,*1E
$GPVTG,,T,,M,,N,,K,N*2C
$GPRMC,,V,,,,,,,,,,N*53
$GPGGA,,,,,,0,,,,,,,,*66
$GPGSV,3,1,10,02,54,073,,06,33,122,,12,61,178,,14,07,224,*76
$GPGSV,3,2,10,15,00,000,,19,11,132,,24,63,357,,25,36,230,*74
$GPGSV,3,3,10,29,33,296,,32,13,241,*7A
$GLGSV,2,1,07,78,09,216,,86,37,150,,77,55,195,,76,52,064,*65
$GLGSV,2,2,07,75,06,047,,88,28,324,,87,78,306,*5F
$GPGSA,A,1,,,,,,,,,,,,,,,*1E
$GPVTG,,T,,M,,N,,K,N*2C
$GPRMC,,V,,,,,,,,,,N*53
$GPGGA,,,,,,0,,,,,,,,*66
$GPGSV,3,1,10,02,54,073,,06,33,122,,12,61,178,,14,07,224,*76
$GPGSV,3,2,10,15,00,000,,19,11,132,,24,63,357,,25,36,230,*74
$GPGSV,3,3,10,29,33,296,,32,13,241,*7A
$GLGSV,2,1,07,78,09,216,,86,37,150,,77,55,195,,76,52,064,*65
$GLGSV,2,2,07,75,06,047,,88,28,324,,87,78,306,*5F
$GPGSA,A,1,,,,,,,,,,,,,,,*1E
$GPVTG,,T,,M,,N,,K,N*2C
$GPRMC,,V,,,,,,,,,,N*53
$GPGGA,,,,,,0,,,,,,,,*66
$GPGSV,3,1,10,02,54,073,,06,33,122,,12,61,178,,14,07,224,*76
$GPGSV,3,2,10,15,00,000,,19,11,132,,24,63,357,,25,36,230,*74
$GPGSV,3,3,10,29,33,296,,32,13,241,*7A
$GLGSV,2,1,07,78,09,216,,86,37,150,,77,55,195,,76,52,064,*65
$GLGSV,2,2,07,75,06,047,,88,28,324,,87,78,306,*5F
$GPGSA,A,1,,,,,,,,,,,,,,,*1E
$GPVTG,,T,,M,,N,,K,N*2C
$GPRMC,,V,,,,,,,,,,N*53
$GPGGA,,,,,,0,,,,,,,,*66
$GPGSV,3,1,10,02,54,073,,06,33,122,,12,61,178,,14,07,224,*76
$GPGSV,3,2,10,15,00,000,,19,11,132,,24,63,357,,25,36,230,*74
$GPGSV,3,3,10,29,33,296,,32,13,241,*7A
$GLGSV,2,1,07,78,09,216,,86,37,150,,77,55,195,,76,52,064,*65
$GLGSV,2,2,07,75,06,047,,88,28,324,,87,78,306,*5F
$GPGSA,A,1,,,,,,,,,,,,,,,*1E
$GPVTG,,T,,M,,N,,K,N*2C
$GPRMC,,V,,,,,,,,,,N*53
$GPGGA,,,,,,0,,,,,,,,*66
$GPGSV,3,1,10,02,54,073,,06,33,122,,12,61,178,,14,07,224,*76
$GPGSV,3,2,10,15,00,000,,19,11,132,,24,63,357,,25,36,230,*74
$GPGSV,3,3,10,29,33,296,,32,13,241,*7A
$GLGSV,2,1,07,78,09,216,,86,37,150,,77,55,195,,76,52,064,*65
$GLGSV,2,2,07,75,06,047,,88,28,324,,87,78,306,*5F
$GPGSA,A,1,,,,,,,,,,,,,,,*1E
$GPVTG,,T,,M,,N,,K,N*2C
$GPRMC,,V,,,,,,,,,,N*53
$GPGGA,,,,,,0,,,,,,,,*66
$GPGSV,3,1,10,02,54,073,,06,33,122,,12,61,178,,14,07,224,*76
$GPGSV,3,2,10,15,00,000,,19,11,132,,24,63,357,,25,36,230,*74
$GPGSV,3,3,10,29,33,296,,32,13,241,*7A
$GLGSV,2,1,07,78,09,216,,86,37,150,,77,55,195,,76,52,064,*65
$GLGSV,2,2,07,75,06,047,,88,28,324,,87,78,306,*5F
$GPGSA,A,1,,,,,,,,,,,,,,,*1E
$GPVTG,,T,,M,,N,,K,N*2C
$GPRMC,,V,,,,,,,,,,N*53
$GPGGA,,,,,,0,,,,,,,,*66
$GPGSV,3,1,10,06,33,122,20,02,54,073,,12,61,178,,14,07,224,*74
$GPGSV,3,2,10,15,00,000,,19,11,132,,24,63,357,,25,36,230,*74
$GPGSV,3,3,10,29,33,296,,32,13,241,*7A
$GLGSV,2,1,07,78,09,216,,86,37,150,,77,55,195,,76,52,064,*65
$GLGSV,2,2,07,75,06,047,,88,28,324,,87,78,306,*5F
$GPGSA,A,1,,,,,,,,,,,,,,,*1E
$GPVTG,,T,,M,,N,,K,N*2C
$GPRMC,,V,,,,,,,,,,N*53
$GPGGA,,,,,,0,,,,,,,,*66
$GPGSV,3,1,10,06,33,122,18,02,54,073,,12,61,178,,14,07,224,*7F
$GPGSV,3,2,10,15,00,000,,19,11,132,,24,63,357,,25,36,230,*74
$GPGSV,3,3,10,29,33,296,,32,13,241,*7A
$GLGSV,2,1,07,78,09,216,,86,37,150,,77,55,195,,76,52,064,*65
$GLGSV,2,2,07,75,06,047,,88,28,324,,87,78,306,*5F
$GPGSA,A,1,,,,,,,,,,,,,,,*1E
$GPVTG,,T,,M,,N,,K,N*2C
$GPRMC,,V,,,,,,,,,,N*53
$GPGGA,,,,,,0,,,,,,,,*66
$GPGSV,3,1,10,06,33,122,18,02,54,073,,12,61,178,,14,07,224,*7F
$GPGSV,3,2,10,15,00,000,,19,11,132,,24,63,357,,25,36,230,*74
$GPGSV,3,3,10,29,33,296,,32,13,241,*7A
$GLGSV,2,1,07,78,09,216,,86,37,150,,77,55,195,,76,52,064,*65
$GLGSV,2,2,07,75,06,047,,88,28,324,,87,78,306,*5F
$GPGSA,A,1,,,,,,,,,,,,,,,*1E
$GPVTG,,T,,M,,N,,K,N*2C
$GPRMC,,V,,,,,,,,,,N*53
$GPGGA,,,,,,0,,,,,,,,*66
$GPGSV,3,1,10,06,33,122,18,02,54,073,,12,61,178,,14,07,224,*7F
$GPGSV,3,2,10,15,00,000,,19,11,132,,24,63,357,,25,36,230,*74
$GPGSV,3,3,10,29,33,296,,32,13,241,*7A
$GLGSV,2,1,07,78,09,216,,86,37,150,,77,55,195,,76,52,064,*65
$GLGSV,2,2,07,75,06,047,,88,28,324,,87,78,306,*5F
$GPGSA,A,1,,,,,,,,,,,,,,,*1E
$GPVTG,,T,,M,,N,,K,N*2C
$GPRMC,,V,,,,,,,,,,N*53
$GPGGA,,,,,,0,,,,,,,,*66
$GPGSV,3,1,10,06,33,122,18,12,61,178,21,02,54,073,,14,07,224,*7C
$GPGSV,3,2,10,15,00,000,,19,11,132,,24,63,357,,25,36,230,*74
$GPGSV,3,3,10,29,33,296,,32,13,241,*7A
$GLGSV,2,1,07,78,09,216,,86,37,150,,77,55,195,,76,52,064,*65
$GLGSV,2,2,07,75,06,047,,88,28,324,,87,78,306,*5F
$GPGSA,A,1,,,,,,,,,,,,,,,*1E
$GPVTG,,T,,M,,N,,K,N*2C
$GPRMC,,V,,,,,,,,,,N*53
$GPGGA,,,,,,0,,,,,,,,*66
$GPGSV,3,1,10,06,33,122,18,12,61,178,21,24,63,357,19,29,33,296,22*71
$GPGSV,3,2,10,02,54,073,,14,07,224,,15,00,000,,19,11,132,*74
$GPGSV,3,3,10,25,36,230,,32,13,241,*7F
$GLGSV,2,1,07,75,06,047,21,88,28,324,24,87,78,306,24,78,09,216,*6C
$GLGSV,2,2,07,86,37,150,,77,55,195,,76,52,064,*55
$GPGSA,A,1,,,,,,,,,,,,,,,*1E
$GPVTG,,T,,M,,N,,K,N*2C
$GPRMC,,V,,,,,,,,,,N*53
$GPGGA,,,,,,0,,,,,,,,*66
$GPGSA,A,1,,,,,,,,,,,,,,,*1E
$GPVTG,,T,,M,,N,,K,N*2C
$GPRMC,,V,,,,,,,,,,N*53
$GPGGA,,,,,,0,,,,,,,,*66
$GPGSV,3,1,10,06,33,122,18,12,61,178,21,24,63,357,19,29,33,296,22*71
$GPGSV,3,2,10,02,54,073,,14,07,224,,15,00,000,,19,11,132,*74
$GPGSV,3,3,10,25,36,230,,32,13,241,*7F
$GLGSV,2,1,07,75,06,047,21,88,28,324,24,87,78,306,24,78,09,216,*6C
$GLGSV,2,2,07,86,37,150,,77,55,195,,76,52,064,*55
$GPGSA,A,1,,,,,,,,,,,,,,,*1E
$GPVTG,,T,,M,,N,,K,N*2C
$GPRMC,,V,,,,,,,,,,N*53
$GPGGA,,,,,,0,,,,,,,,*66
$GPGSA,A,1,,,,,,,,,,,,,,,*1E
$GPVTG,,T,,M,,N,,K,N*2C
$GPRMC,,V,,,,,,,,,,N*53
$GPGGA,,,,,,0,,,,,,,,*66
$GPGSV,3,1,10,06,33,122,18,12,61,178,20,24,63,357,18,29,34,296,22*76
$GPGSV,3,2,10,02,54,073,,14,07,224,,15,00,000,,19,11,132,*74
$GPGSV,3,3,10,25,36,230,,32,13,241,*7F
$GLGSV,2,1,07,75,06,047,19,88,28,324,24,87,78,306,24,78,09,216,*67
$GLGSV,2,2,07,86,37,150,,77,55,195,,76,52,064,*55
$GPGSA,A,1,,,,,,,,,,,,,,,*1E
$GPVTG,,T,,M,,N,,K,N*2C
$GPRMC,,V,,,,,,,,,,N*53
$GPGGA,,,,,,0,,,,,,,,*66
$GPGSA,A,1,,,,,,,,,,,,,,,*1E
$GPVTG,,T,,M,,N,,K,N*2C
$GPRMC,,V,,,,,,,,,,N*53
$GPGGA,,,,,,0,,,,,,,,*66
$GPGSV,3,1,10,02,54,073,16,06,33,122,18,12,61,178,20,24,63,357,22*7E
$GPGSV,3,2,10,29,34,296,22,14,07,224,,15,00,000,,19,11,132,*72
$GPGSV,3,3,10,25,36,230,,32,13,241,*7F
$GLGSV,2,1,07,86,37,150,18,76,52,064,18,75,06,047,19,88,28,324,24*6D
$GLGSV,2,2,07,87,78,306,24,78,09,216,,77,55,195,*5F
$GPGSA,A,1,,,,,,,,,,,,,,,*1E
$GPVTG,,T,,M,,N,,K,N*2C
$GPRMC,,V,,,,,,,,,,N*53
$GPGGA,,,,,,0,,,,,,,,*66
$GPGSA,A,1,,,,,,,,,,,,,,,*1E
$GPVTG,,T,,M,,N,,K,N*2C
$GPRMC,,V,,,,,,,,,,N*53
$GPGGA,,,,,,0,,,,,,,,*66
$GPGSV,3,1,10,02,54,073,17,06,33,122,18,12,61,178,19,24,63,357,22*75
$GPGSV,3,2,10,29,34,296,24,14,07,224,,15,00,000,,19,11,132,*74
$GPGSV,3,3,10,25,36,230,,32,13,241,*7F
$GLGSV,2,1,07,86,37,150,18,76,52,064,20,75,06,047,20,88,28,324,24*6C
$GLGSV,2,2,07,87,78,306,23,78,09,216,,77,55,195,*58
$GPGSA,A,1,,,,,,,,,,,,,,,*1E
$GPVTG,,T,,M,,N,,K,N*2C
$GPRMC,,V,,,,,,,,,,N*53
$GPGGA,,,,,,0,,,,,,,,*66
$GPGSV,3,1,10,02,54,073,18,06,33,122,18,12,61,178,19,24,63,357,22*7A
$GPGSV,3,2,10,29,34,296,24,14,07,224,,15,00,000,,19,11,132,*74
$GPGSV,3,3,10,25,36,230,,32,13,241,*7F
$GLGSV,2,1,07,86,37,150,19,76,52,064,21,75,06,047,20,88,28,324,24*6C
$GLGSV,2,2,07,87,78,306,23,78,09,216,,77,55,195,*58
$GPGSA,A,1,,,,,,,,,,,,,,,*1E
$GPVTG,,T,,M,,N,,K,N*2C
$GPRMC,,V,,,,,,,,,,N*53
$GPGGA,,,,,,0,,,,,,,,*66
$GPGSV,3,1,10,02,54,073,19,06,33,122,18,12,61,178,22,24,63,357,28*79
$GPGSV,3,2,10,29,34,296,25,14,07,224,,15,00,000,,19,11,132,*75
$GPGSV,3,3,10,25,36,230,,32,13,241,*7F
$GLGSV,2,1,07,86,37,150,19,76,52,064,23,75,06,047,20,88,28,324,24*6E
$GLGSV,2,2,07,87,78,306,23,78,09,216,,77,55,195,*58
$GPGSA,A,1,,,,,,,,,,,,,,,*1E
$GPVTG,,T,,M,,N,,K,N*2C
$GPRMC,,V,,,,,,,,,,N*53
$GPGGA,,,,,,0,,,,,,,,*66
$GPGSV,3,1,10,02,54,073,19,06,33,122,18,12,61,178,23,24,63,357,27*77
$GPGSV,3,2,10,25,36,230,19,29,34,296,27,14,07,224,,15,00,000,*74
$GPGSV,3,3,10,19,11,132,,32,13,241,*74
$GLGSV,2,1,07,86,37,150,19,76,52,064,26,75,06,047,20,88,28,324,25*6A
$GLGSV,2,2,07,87,78,306,25,78,09,216,,77,55,195,*5E
$GPGSA,A,3,12,24,25,29,,,,,,,,,2.0,1.4,1.5*38
$GPVTG,85.1,T,85.1,M,22.0,N,40.8,K,A*2F
$GPRMC,173301,A,3436.540467,S,05822.092425,W,22.0,85.1,171117,5.4,W,A*0F
$GPGGA,173301,3436.540467,S,05822.092425,W,1,04,1.4,62.0,M,22.0,M,,*7C
$GPGSV,3,1,10,02,54,073,19,06,33,122,18,12,61,178,18,24,63,357,24*7C
$GPGSV,3,2,10,25,36,230,17,29,34,296,25,14,07,224,,15,00,000,*78
$GPGSV,3,3,10,19,11,132,,32,13,241,*74
$GLGSV,2,1,07,86,37,150,18,76,52,064,23,75,06,047,21,88,28,324,24*6E
$GLGSV,2,2,07,87,78,306,22,78,09,216,,77,55,195,*59
$GPGSA,A,3,02,12,24,25,29,,,,,,,,2.0,1.4,1.5*3A
$GPVTG,64.0,T,64.0,M,21.4,N,39.6,K,A*28
$GPRMC,173302,A,3436.532838,S,05822.080974,W,21.4,64.0,171117,5.4,W,A*0C
$GPGGA,173302,3436.532838,S,05822.080974,W,1,05,1.4,79.0,M,22.0,M,,*7D
$GPGSV,3,1,10,02,54,073,19,06,33,122,18,12,61,178,18,24,63,357,24*7C
$GPGSV,3,2,10,25,36,230,17,29,34,296,22,14,07,224,,15,00,000,*7F
$GPGSV,3,3,10,19,11,132,,32,13,241,*74
$GLGSV,2,1,07,86,37,150,17,76,52,064,16,75,06,047,20,88,28,324,23*61
$GLGSV,2,2,07,87,78,306,18,78,09,216,,77,55,195,*50
$GPGSA,A,3,02,12,24,25,29,,,,,,,,2.0,1.4,1.5*3A
$GPVTG,49.2,T,49.2,M,22.9,N,42.4,K,A*28
$GPRMC,173303,A,3436.529301,S,05822.082938,W,22.9,49.2,171117,5.4,W,A*0F
$GPGGA,173303,3436.529301,S,05822.082938,W,1,05,1.4,70.0,M,22.0,M,,*74
$GPGSV,3,1,10,02,54,073,19,06,33,122,18,12,61,178,18,24,63,357,24*7C
$GPGSV,3,2,10,25,36,230,16,29,34,296,28,14,07,224,,15,00,000,*74
$GPGSV,3,3,10,19,11,132,,32,13,241,*74
$GLGSV,2,1,07,86,37,150,17,76,52,064,17,75,06,047,20,88,28,324,24*67
$GLGSV,2,2,07,87,78,306,20,78,09,216,,77,55,195,*5B
$GPGSA,A,1,,,,,,,,,,,,,,,*1E
$GPVTG,,T,,M,,N,,K,N*2C
$GPRMC,,V,,,,,,,,,,N*53
$GPGGA,,,,,,0,,,,,,,,*66
$GPGSV,3,1,10,02,54,073,,06,32,122,,12,61,178,,14,07,224,*77
$GPGSV,3,2,10,15,00,000,,19,11,132,,24,63,357,,25,36,230,*74
$GPGSV,3,3,10,29,34,296,,32,13,241,*7D
$GLGSV,2,1,07,78,09,216,,86,37,150,,77,56,195,,76,52,064,*66
$GLGSV,2,2,07,75,05,047,,88,28,324,,87,78,305,*5F
$GPGSA,A,1,,,,,,,,,,,,,,,*1E
$GPVTG,,T,,M,,N,,K,N*2C
$GPRMC,,V,,,,,,,,,,N*53
$GPGGA,,,,,,0,,,,,,,,*66
$GPGSA,A,1,,,,,,,,,,,,,,,*1E
$GPVTG,,T,,M,,N,,K,N*2C
$GPRMC,,V,,,,,,,,,,N*53
$GPGGA,,,,,,0,,,,,,,,*66
$GPGSV,3,1,10,29,34,296,29,02,54,073,,06,32,122,,12,61,178,*7B
$GPGSV,3,2,10,14,07,224,,15,00,000,,19,11,132,,24,63,357,*71
$GPGSV,3,3,10,25,36,230,,32,13,241,*7F
$GLGSV,2,1,07,87,78,305,23,78,09,216,,86,37,150,,77,56,195,*65
$GLGSV,2,2,07,76,52,064,,75,05,047,,88,28,324,*5D
$GPGSA,A,1,,,,,,,,,,,,,,,*1E
$GPVTG,,T,,M,,N,,K,N*2C
$GPRMC,,V,,,,,,,,,,N*53
$GPGGA,,,,,,0,,,,,,,,*66
$GPGSA,A,1,,,,,,,,,,,,,,,*1E
$GPVTG,,T,,M,,N,,K,N*2C
$GPRMC,,V,,,,,,,,,,N*53
$GPGGA,,,,,,0,,,,,,,,*66
$GPGSV,3,1,10,02,54,073,20,24,63,357,25,25,36,230,25,29,34,296,32*7E
$GPGSV,3,2,10,32,13,241,21,06,32,122,,12,61,178,,14,07,224,*74
$GPGSV,3,3,10,15,00,000,,19,11,132,*74
$GLGSV,2,1,07,88,28,324,25,87,78,305,26,78,09,216,,86,37,150,*66
$GLGSV,2,2,07,77,56,195,,76,52,064,,75,05,047,*5C
$GPGSA,A,1,,,,,,,,,,,,,,,*1E
$GPVTG,,T,,M,,N,,K,N*2C
$GPRMC,,V,,,,,,,,,,N*53
$GPGGA,,,,,,0,,,,,,,,*66
$GPGSV,3,1,10,02,54,073,20,24,63,357,25,25,36,230,25,29,34,296,32*7E
$GPGSV,3,2,10,32,13,241,21,06,32,122,,12,61,178,,14,07,224,*74
$GPGSV,3,3,10,15,00,000,,19,11,132,*74
$GLGSV,2,1,07,88,28,324,25,87,78,305,26,78,09,216,,86,37,150,*66
$GLGSV,2,2,07,77,56,195,,76,52,064,,75,05,047,*5C
$GPGSA,A,1,,,,,,,,,,,,,,,*1E
$GPVTG,,T,,M,,N,,K,N*2C
$GPRMC,,V,,,,,,,,,,N*53
$GPGGA,,,,,,0,,,,,,,,*66
$GPGSV,3,1,10,02,54,073,21,06,32,122,19,19,11,132,20,24,63,357,24*7E
$GPGSV,3,2,10,25,36,230,30,29,34,296,34,32,13,241,20,12,61,178,*73
$GPGSV,3,3,10,14,07,224,,15,00,000,*7A
$GLGSV,2,1,07,86,37,150,19,75,05,047,32,88,28,324,23,87,78,305,27*6F
$GLGSV,2,2,07,78,09,216,,77,56,195,,76,52,064,*5B
$GPGSA,A,3,02,06,19,24,25,29,32,,,,,,1.6,1.1,1.2*31
$GPVTG,4.4,T,4.4,M,25.7,N,47.7,K,A*27
$GPRMC,173309,A,3436.496817,S,05822.065460,W,25.7,4.4,171117,5.4,W,A*33
$GPGGA,173309,3436.496817,S,05822.065460,W,1,07,1.1,13.0,M,22.0,M,,*7C
$GPGSV,3,1,10,02,54,073,20,06,32,122,18,12,61,178,19,19,11,132,18*73
$GPGSV,3,2,10,24,63,357,22,25,36,230,23,29,34,296,31,32,13,241,20*7C
$GPGSV,3,3,10,14,07,224,,15,00,000,*7A
$GLGSV,2,1,07,86,37,150,17,76,52,064,17,75,05,047,31,88,28,324,22*62
$GLGSV,2,2,07,87,78,305,22,78,09,216,,77,56,195,*59
$GPGSA,A,3,02,06,12,19,24,25,29,32,,,,,1.5,1.0,1.1*33
$GPVTG,2.8,T,2.8,M,22.1,N,40.9,K,A*2F
$GPRMC,173310,A,3436.495359,S,05822.065473,W,22.1,2.8,171117,5.4,W,A*30
$GPGGA,173310,3436.495359,S,05822.065473,W,1,08,1.0,9.0,M,22.0,M,,*41
$GPGSV,3,1,10,02,54,073,19,06,32,122,17,12,61,178,18,19,11,132,16*79
$GPGSV,3,2,10,24,63,357,24,25,36,230,23,29,34,296,32,32,13,241,19*73
$GPGSV,3,3,10,14,07,224,,15,00,000,*7A
$GLGSV,2,1,07,78,09,216,19,86,37,150,16,76,52,064,16,75,05,047,31*66
$GLGSV,2,2,07,88,28,324,21,87,78,305,22,77,56,195,*56
$GPGSA,A,3,02,06,12,19,24,25,29,32,,,,,1.4,0.9,1.0*3B
$GPVTG,358.7,T,358.7,M,26.7,N,49.4,K,A*29
$GPRMC,173311,A,3436.487668,S,05822.065477,W,26.7,358.7,171117,5.4,W,A*30
$GPGGA,173311,3436.487668,S,05822.065477,W,1,08,0.9,18.0,M,22.0,M,,*78
$GPGSV,3,1,10,02,54,073,18,06,32,122,17,12,61,178,18,19,11,132,16*78
$GPGSV,3,2,10,24,63,357,25,25,36,230,22,29,34,296,32,32,13,241,22*7B
$GPGSV,3,3,10,14,07,224,,15,00,000,*7A
$GLGSV,2,1,07,78,09,216,18,86,37,150,16,76,52,064,17,75,05,047,31*66
$GLGSV,2,2,07,88,28,324,21,87,78,305,22,77,56,195,*56
$GPGSA,A,3,02,06,12,19,24,25,29,32,,,,,1.4,0.9,1.0*3B
$GPVTG,351.9,T,351.9,M,27.8,N,51.5,K,A*2F
$GPRMC,173312,A,3436.479675,S,05822.066192,W,27.8,351.9,171117,5.4,W,A*3A
$GPGGA,173312,3436.479675,S,05822.066192,W,1,08,0.9,26.0,M,22.0,M,,*76
$GPGSV,3,1,10,02,54,073,17,06,32,122,16,12,61,178,17,19,11,132,15*7A
$GPGSV,3,2,10,24,63,357,24,25,36,230,20,29,34,296,32,32,13,241,22*78
$GPGSV,3,3,10,14,07,224,,15,00,000,*7A
$GLGSV,2,1,07,78,09,216,18,86,37,150,16,76,52,064,17,75,05,047,31*66
$GLGSV,2,2,07,88,28,324,21,87,78,305,25,77,56,195,*51
$GPGSA,A,3,02,06,12,19,24,25,29,32,,,,,2.1,1.2,1.7*30
$GPVTG,352.9,T,352.9,M,25.0,N,46.3,K,A*25
$GPRMC,173313,A,3436.474471,S,05822.065786,W,25.0,352.9,171117,5.4,W,A*39
$GPGGA,173313,3436.474471,S,05822.065786,W,1,08,1.2,5.0,M,22.0,M,,*47
$GPGSV,3,1,10,02,54,073,17,06,32,122,16,12,61,178,17,14,07,224,17*76
$GPGSV,3,2,10,19,11,132,16,24,63,357,20,25,36,230,22,29,34,296,28*7E
$GPGSV,3,3,10,32,13,241,21,15,00,000,*7B
$GLGSV,2,1,07,78,09,216,18,86,37,150,16,76,52,064,17,75,05,047,17*62
$GLGSV,2,2,07,88,28,324,19,87,78,305,23,77,56,195,*5C
$GPGSA,A,3,02,06,12,14,19,24,25,29,32,,,,1.0,0.7,0.7*32
$GPVTG,352.4,T,352.4,M,24.0,N,44.4,K,A*21
$GPRMC,173315,A,3436.466414,S,05822.073266,W,24.0,352.4,171117,5.4,W,A*3F
$GPGGA,173315,3436.466414,S,05822.073266,W,1,09,0.7,19.0,M,22.0,M,,*75
$GPGSV,3,1,10,02,54,073,17,06,32,122,16,12,61,178,16,14,07,224,17*77
$GPGSV,3,2,10,19,11,132,16,24,63,357,17,25,36,230,22,29,34,296,29*7B
$GPGSV,3,3,10,32,13,241,17,15,00,000,*7E
$GLGSV,2,1,07,78,09,216,17,86,37,150,14,76,52,064,16,75,05,047,22*68
$GLGSV,2,2,07,88,28,324,16,87,78,305,22,77,56,195,*52
$GPGSA,A,3,02,06,12,14,19,24,25,29,32,,,,1.0,0.7,0.7*32
$GPVTG,350.7,T,350.7,M,26.3,N,48.6,K,A*2E
$GPRMC,173316,A,3436.456555,S,05822.072191,W,26.3,350.7,171117,5.4,W,A*31
$GPGGA,173316,3436.456555,S,05822.072191,W,1,09,0.7,11.0,M,22.0,M,,*73
$GPGSV,3,1,10,02,54,073,16,06,32,122,16,12,61,178,16,14,07,224,16*77
$GPGSV,3,2,10,19,11,132,16,24,63,357,17,25,36,230,16,29,34,296,32*76
$GPGSV,3,3,10,32,13,241,22,15,00,000,*78
$GLGSV,2,1,07,78,09,216,16,86,37,150,14,76,52,064,16,75,05,047,22*69
$GLGSV,2,2,07,88,28,324,20,87,78,305,25,77,56,195,*50
$GPGSA,A,3,02,06,12,14,19,24,25,29,32,,,,1.0,0.7,0.7*32
$GPVTG,348.1,T,348.1,M,27.4,N,50.8,K,A*2F
$GPRMC,173317,A,3436.447816,S,05822.074226,W,27.4,348.1,171117,5.4,W,A*3A
$GPGGA,173317,3436.447816,S,05822.074226,W,1,09,0.7,9.0,M,22.0,M,,*48
$GPGSV,3,1,10,02,54,073,16,06,32,122,16,12,61,178,15,14,07,224,16*74
$GPGSV,3,2,10,19,11,132,15,24,63,357,17,25,36,230,21,29,34,296,31*72
$GPGSV,3,3,10,32,13,241,25,15,00,000,*7F
$GLGSV,2,1,07,78,09,216,16,86,37,150,14,77,56,195,12,76,52,064,16*60
$GLGSV,2,2,07,75,05,047,22,88,28,324,26,87,78,305,23*5A
$GPGSA,A,3,02,06,12,14,19,24,25,29,32,,,,1.0,0.7,0.7*32
$GPVTG,352.5,T,352.5,M,26.4,N,48.9,K,A*26
$GPRMC,173318,A,3436.440081,S,05822.074796,W,26.4,352.5,171117,5.4,W,A*34
$GPGGA,173318,3436.440081,S,05822.074796,W,1,09,0.7,9.0,M,22.0,M,,*48
$GPGSV,3,1,10,02,54,073,15,06,32,122,16,12,61,178,16,14,07,224,15*77
$GPGSV,3,2,10,19,11,132,15,24,63,357,17,25,36,230,19,29,34,296,29*70
$GPGSV,3,3,10,32,13,241,19,15,00,000,*70
$GLGSV,2,1,07,78,09,216,16,86,37,150,14,77,56,195,12,76,52,064,15*63
$GLGSV,2,2,07,75,05,047,22,88,28,324,25,87,78,305,18*51
$GPGSA,A,3,02,06,12,14,19,24,25,29,32,,,,1.0,0.7,0.7*32
$GPVTG,353.2,T,353.2,M,25.5,N,47.3,K,A*21
$GPRMC,173319,A,3436.433400,S,05822.076461,W,25.5,353.2,171117,5.4,W,A*31
$GPGGA,173319,3436.433400,S,05822.076461,W,1,09,0.7,8.0,M,22.0,M,,*48
$GPGSV,3,1,10,02,54,073,15,06,32,122,16,12,61,178,16,14,07,224,15*77
$GPGSV,3,2,10,19,11,132,15,24,63,357,17,25,36,230,26,29,34,296,29*7C
$GPGSV,3,3,10,32,13,241,22,15,00,000,*78
$GLGSV,2,1,07,78,09,216,16,86,37,150,14,77,56,195,12,76,52,064,15*63
$GLGSV,2,2,07,75,05,047,22,88,28,324,24,87,78,305,21*5A
$GPGSA,A,3,02,06,12,14,19,24,25,29,32,,,,1.0,0.7,0.7*32
$GPVTG,345.5,T,345.5,M,22.3,N,41.3,K,A*26
$GPRMC,173320,A,3436.431459,S,05822.080405,W,22.3,345.5,171117,5.4,W,A*3F
$GPGGA,173320,3436.431459,S,05822.080405,W,1,09,0.7,4.0,M,22.0,M,,*4B
$GPGSV,3,1,10,02,54,073,15,06,32,122,16,12,61,178,20,14,07,224,15*72
$GPGSV,3,2,10,19,11,132,19,24,63,357,25,25,36,230,25,29,34,296,24*7F
$GPGSV,3,3,10,32,13,241,25,15,00,000,*7F
$GLGSV,2,1,07,78,09,216,20,86,37,150,14,77,56,195,12,76,52,064,15*66
$GLGSV,2,2,07,75,05,047,30,88,28,324,27,87,78,305,23*58
$GPGSA,A,3,02,06,12,14,19,24,25,29,32,,,,1.0,0.7,0.7*32
$GPVTG,334.5,T,334.5,M,18.5,N,34.3,K,A*2B
$GPRMC,173321,A,3436.428119,S,05822.085287,W,18.5,334.5,171117,5.4,W,A*37
$GPGGA,173321,3436.428119,S,05822.085287,W,1,09,0.7,4.0,M,22.0,M,,*4A
$GPGSV,3,1,10,02,54,073,15,06,32,122,16,12,61,178,19,14,07,224,15*78
$GPGSV,3,2,10,19,11,132,19,24,63,357,25,25,36,230,19,29,34,296,29*7D
$GPGSV,3,3,10,32,13,241,20,15,00,000,*7A
$GLGSV,2,1,07,78,09,216,20,86,37,150,14,77,56,195,12,76,52,064,18*6B
$GLGSV,2,2,07,75,05,047,25,88,28,323,22,87,79,305,19*56
$GPGSA,A,3,02,06,12,14,19,24,25,29,32,,,,1.0,0.7,0.7*32
$GPVTG,337.7,T,337.7,M,17.2,N,31.9,K,A*2C
$GPRMC,173322,A,3436.423721,S,05822.088122,W,17.2,337.7,171117,5.4,W,A*3A
$GPGGA,173322,3436.423721,S,05822.088122,W,1,09,0.7,2.0,M,22.0,M,,*48
$GPGSV,3,1,10,02,54,073,15,06,32,122,16,12,61,178,26,14,07,224,15*74
$GPGSV,3,2,10,19,11,132,18,24,63,357,25,25,36,230,18,29,34,296,31*74
$GPGSV,3,3,10,32,13,241,24,15,00,000,*7E
$GLGSV,2,1,07,78,09,216,20,86,37,150,16,77,56,195,12,76,52,064,18*69
$GLGSV,2,2,07,75,05,047,27,88,28,323,17,87,79,305,17*5C
$GPGSA,A,3,02,06,12,14,19,24,25,29,32,,,,1.0,0.7,0.7*32
$GPVTG,335.8,T,335.8,M,17.0,N,31.5,K,A*22
$GPRMC,173323,A,3436.420628,S,05822.089728,W,17.0,335.8,171117,5.4,W,A*32
$GPGGA,173323,3436.420628,S,05822.089728,W,1,09,0.7,5.0,M,22.0,M,,*48
$GPGSV,3,1,10,02,54,073,15,06,32,122,14,12,61,178,23,14,07,224,15*73
$GPGSV,3,2,10,19,11,132,18,24,63,357,16,25,36,230,29,29,34,296,31*76
$GPGSV,3,3,10,32,13,241,27,15,00,000,*7D
$GLGSV,2,1,07,78,09,216,20,86,37,150,23,77,56,195,15,76,52,064,18*68
$GLGSV,2,2,07,75,05,047,30,88,28,323,19,87,79,305,21*51
$GPGSA,A,3,02,06,12,14,19,24,25,29,32,,,,1.0,0.7,0.7*32
$GPVTG,309.9,T,309.9,M,16.4,N,30.3,K,A*20
$GPRMC,173324,A,3436.419614,S,05822.094569,W,16.4,309.9,171117,5.4,W,A*30
$GPGGA,173324,3436.419614,S,05822.094569,W,1,09,0.7,5.0,M,22.0,M,,*41
$GPGSV,3,1,10,02,54,073,15,06,32,122,19,12,61,178,23,14,07,224,15*7E
$GPGSV,3,2,10,19,11,132,17,24,63,357,17,25,36,230,26,29,34,296,30*76
$GPGSV,3,3,10,32,13,241,24,15,00,000,*7E
$GLGSV,2,1,07,78,09,216,20,86,37,150,23,77,56,195,15,76,52,064,16*66
$GLGSV,2,2,07,75,05,047,25,88,28,323,16,87,79,305,16*5E
$GPGSA,A,3,02,06,12,14,19,24,25,29,32,,,,1.0,0.7,0.7*32
$GPVTG,305.7,T,305.7,M,15.4,N,28.6,K,A*2F
$GPRMC,173325,A,3436.417506,S,05822.098602,W,15.4,305.7,171117,5.4,W,A*3C
$GPGGA,173325,3436.417506,S,05822.098602,W,1,09,0.7,6.0,M,22.0,M,,*4F
$GPGSV,3,1,10,02,54,073,18,06,32,122,27,12,61,178,29,14,07,224,15*74
$GPGSV,3,2,10,19,11,132,23,24,63,357,20,25,36,230,25,29,34,296,30*76
$GPGSV,3,3,10,32,13,241,34,15,00,000,*7F
$GLGSV,2,1,07,78,09,216,20,86,37,150,23,77,56,195,15,76,52,064,20*63
$GLGSV,2,2,07,75,05,047,27,88,28,323,19,87,79,305,20*56
$GPGSA,A,3,02,06,12,14,19,24,25,29,32,,,,1.0,0.7,0.7*32
$GPVTG,296.3,T,296.3,M,16.6,N,30.8,K,A*29
$GPRMC,173326,A,3436.415454,S,05822.102477,W,16.6,296.3,171117,5.4,W,A*37
$GPGGA,173326,3436.415454,S,05822.102477,W,1,09,0.7,8.0,M,22.0,M,,*44
$GPGSV,3,1,10,02,54,073,19,06,32,122,22,12,61,178,27,14,07,224,15*7E
$GPGSV,3,2,10,19,11,132,25,24,63,357,20,25,36,230,26,29,34,296,22*70
$GPGSV,3,3,10,32,13,241,30,15,00,000,*7B
$GLGSV,2,1,07,78,09,216,15,86,37,150,20,77,56,195,18,76,52,064,20*6B
$GLGSV,2,2,07,75,05,047,18,88,28,323,19,87,79,305,17*5E
$GPGSA,A,3,02,06,12,14,19,24,25,29,32,,,,1.0,0.7,0.7*32
$GPVTG,299.1,T,299.1,M,17.6,N,32.6,K,A*24
$GPRMC,173327,A,3436.412967,S,05822.107521,W,17.6,299.1,171117,5.4,W,A*37
$GPGGA,173327,3436.412967,S,05822.107521,W,1,09,0.7,8.0,M,22.0,M,,*48
$GPGSV,3,1,10,02,54,073,20,06,32,122,23,12,61,178,30,14,07,224,15*73
$GPGSV,3,2,10,19,11,132,21,24,63,357,19,25,36,230,28,29,34,296,26*74
$GPGSV,3,3,10,32,13,241,26,15,00,000,*7C
$GLGSV,2,1,07,78,09,216,25,86,37,150,26,77,56,195,21,76,52,064,17*60
$GLGSV,2,2,07,75,05,047,23,88,28,323,16,87,79,305,18*56
$GPGSA,A,3,02,06,12,14,19,24,25,29,32,,,,1.0,0.7,0.7*32
$GPVTG,298.5,T,298.5,M,17.8,N,32.9,K,A*25
$GPRMC,173328,A,3436.411193,S,05822.113225,W,17.8,298.5,171117,5.4,W,A*35
$GPGGA,173328,3436.411193,S,05822.113225,W,1,09,0.7,5.0,M,22.0,M,,*4C
$GPGSV,3,1,10,02,54,073,19,06,32,122,23,12,61,178,32,14,07,224,15*7B
$GPGSV,3,2,10,19,11,132,23,24,63,357,20,25,36,230,25,29,34,296,28*7F
$GPGSV,3,3,10,32,13,241,26,15,00,000,*7C
$GLGSV,2,1,07,78,09,216,26,86,37,150,25,77,56,195,21,76,52,064,19*6E
$GLGSV,2,2,07,75,05,047,22,88,28,323,16,87,79,305,18*57
$GPGSA,A,3,02,06,12,14,19,24,25,29,32,,,,1.0,0.7,0.7*32
$GPVTG,302.3,T,302.3,M,17.5,N,32.4,K,A*25
$GPRMC,173329,A,3436.408014,S,05822.116973,W,17.5,302.3,171117,5.4,W,A*36
$GPGGA,173329,3436.408014,S,05822.116973,W,1,09,0.7,2.0,M,22.0,M,,*41
$GPGSV,3,1,10,02,54,073,19,06,32,122,23,12,61,178,27,14,07,224,15*7F
$GPGSV,3,2,10,19,11,132,23,24,63,357,20,25,36,230,25,29,34,296,27*70
$GPGSV,3,3,10,32,13,241,22,15,00,000,*78
$GLGSV,2,1,07,78,09,216,24,86,37,150,24,77,56,195,21,76,52,064,19*6D
$GLGSV,2,2,07,75,05,047,27,88,28,323,17,87,79,305,15*5E
$GPGSA,A,3,02,06,12,14,19,24,25,29,32,,,,1.0,0.7,0.7*32
$GPVTG,299.6,T,299.6,M,17.8,N,33.0,K,A*2D
$GPRMC,173330,A,3436.406096,S,05822.122669,W,17.8,299.6,171117,5.4,W,A*32
$GPGGA,173330,3436.406096,S,05822.122669,W,1,09,0.7,1.0,M,22.0,M,,*4D
$GPGSV,3,1,10,02,54,073,19,06,32,122,23,12,61,178,24,14,07,224,15*7C
$GPGSV,3,2,10,19,11,132,17,24,63,357,22,25,36,230,30,29,34,296,34*73
$GPGSV,3,3,10,32,13,241,24,15,00,000,*7E
$GLGSV,2,1,07,78,09,216,24,86,37,150,26,77,56,195,21,76,52,064,19*6F
$GLGSV,2,2,07,75,05,047,30,88,28,323,18,87,79,305,15*57
$GPGSA,A,3,02,06,12,14,19,24,25,29,32,,,,1.0,0.7,0.7*32
$GPVTG,299.7,T,299.7,M,17.8,N,33.0,K,A*2D
$GPRMC,173331,A,3436.403726,S,05822.128087,W,17.8,299.7,171117,5.4,W,A*37
$GPGGA,173331,3436.403726,S,05822.128087,W,1,09,0.7,2.0,M,22.0,M,,*4A
$GPGSV,3,1,10,02,54,073,19,06,32,122,23,12,61,178,27,14,07,224,15*7F
$GPGSV,3,2,10,19,11,132,17,24,63,357,25,25,36,230,27,29,34,296,36*70
$GPGSV,3,3,10,32,13,241,22,15,00,000,*78
$GLGSV,2,1,07,78,09,216,20,86,37,150,24,77,56,195,21,76,52,064,19*69
$GLGSV,2,2,07,75,05,047,30,88,28,323,18,87,79,305,15*57
$GPGSA,A,3,02,06,12,14,19,24,25,29,32,,,,1.0,0.7,0.7*32
$GPVTG,304.5,T,304.5,M,16.9,N,31.2,K,A*2D
$GPRMC,173332,A,3436.400930,S,05822.131997,W,16.9,304.5,171117,5.4,W,A*39
$GPGGA,173332,3436.400930,S,05822.131997,W,1,09,0.7,2.0,M,22.0,M,,*43
$GPGSV,3,1,10,02,54,073,19,06,32,122,23,12,61,178,26,14,07,224,15*7E
$GPGSV,3,2,10,19,11,132,17,24,63,357,24,25,36,230,29,29,34,296,36*7F
$GPGSV,3,3,10,32,13,241,24,15,00,000,*7E
$GLGSV,2,1,07,78,09,216,24,86,37,150,25,77,56,195,15,76,52,064,19*6B
$GLGSV,2,2,07,75,05,047,32,88,28,323,16,87,79,305,13*5D
$GPGSA,A,3,02,06,12,14,19,24,25,29,32,,,,1.0,0.7,0.7*32
$GPVTG,310.4,T,310.4,M,15.1,N,27.9,K,A*2A
$GPRMC,173333,A,3436.398260,S,05822.135084,W,15.1,310.4,171117,5.4,W,A*30
$GPGGA,173333,3436.398260,S,05822.135084,W,1,09,0.7,1.0,M,22.0,M,,*46
$GPGSV,3,1,10,02,54,073,19,06,32,122,23,12,61,178,23,14,07,224,15*7B
$GPGSV,3,2,10,19,11,132,21,24,62,357,19,25,36,230,27,29,34,296,31*7C
$GPGSV,3,3,10,32,13,241,25,15,00,000,*7F
$GLGSV,2,1,07,78,09,216,24,86,37,150,23,77,56,195,15,76,52,063,19*6A
$GLGSV,2,2,07,75,05,046,24,88,28,323,16,87,79,305,13*5B
$GPGSA,A,3,02,06,12,14,19,24,25,29,32,,,,1.0,0.7,0.7*32
$GPVTG,311.7,T,311.7,M,13.8,N,25.5,K,A*2B
$GPRMC,173334,A,3436.395795,S,05822.137896,W,13.8,311.7,171117,5.4,W,A*31
$GPGGA,173334,3436.395795,S,05822.137896,W,1,09,0.7,0.0,M,22.0,M,,*4B
$GPGSV,3,1,10,02,54,073,16,06,32,122,23,12,61,178,22,14,07,224,15*75
$GPGSV,3,2,10,19,11,132,27,24,62,357,20,25,36,230,33,29,34,296,35*71
$GPGSV,3,3,10,32,13,241,21,15,00,000,*7B
$GLGSV,2,1,07,78,09,216,22,86,37,150,27,77,56,195,15,76,52,063,14*65
$GLGSV,2,2,07,75,05,046,19,88,28,323,18,87,79,305,16*5E
$GPGSA,A,3,02,06,12,14,19,24,25,29,32,,,,1.1,0.8,0.7*3C
$GPVTG,307.9,T,307.9,M,12.4,N,23.0,K,A*25
$GPRMC,173335,A,3436.393599,S,05822.141242,W,12.4,307.9,171117,5.4,W,A*3E
$GPGGA,173335,3436.393599,S,05822.141242,W,1,09,0.8,0.0,M,22.0,M,,*4F
$GPGSV,3,1,10,02,54,073,19,06,32,122,23,12,61,178,22,14,07,224,15*7A
$GPGSV,3,2,10,19,11,132,20,24,62,357,20,25,36,230,30,29,34,296,31*71
$GPGSV,3,3,10,32,13,241,17,15,00,000,*7E
$GLGSV,2,1,07,78,09,216,22,86,37,150,23,77,56,195,15,76,52,063,14*61
$GLGSV,2,2,07,75,05,046,22,88,28,323,19,87,79,305,18*59
$GPGSA,A,3,02,06,12,14,19,24,25,29,32,,,,1.0,0.7,0.7*32
$GPVTG,308.1,T,308.1,M,10.3,N,19.0,K,A*29
$GPRMC,173336,A,3436.391738,S,05822.143368,W,10.3,308.1,171117,5.4,W,A*3F
$GPGGA,173336,3436.391738,S,05822.143368,W,1,09,0.7,1.0,M,22.0,M,,*42
$GPGSV,3,1,10,02,54,073,19,06,32,122,23,12,61,178,21,14,07,224,15*79
$GPGSV,3,2,10,19,11,132,19,24,62,357,20,25,36,230,28,29,34,296,28*7A
$GPGSV,3,3,10,32,13,241,17,15,00,000,*7E
$GLGSV,2,1,07,78,09,216,18,86,37,150,23,77,56,195,15,76,52,063,14*68
$GLGSV,2,2,07,75,05,046,19,88,28,323,20,87,79,305,22*52
$GPGSA,A,3,02,06,12,14,19,24,25,29,32,,,,1.1,0.8,0.7*3C
$GPVTG,304.6,T,304.6,M,9.2,N,17.1,K,A*1F
$GPRMC,173337,A,3436.390167,S,05822.145905,W,9.2,304.6,171117,5.4,W,A*06
$GPGGA,173337,3436.390167,S,05822.145905,W,1,09,0.8,0.0,M,22.0,M,,*47
$GPGSV,3,1,10,02,54,073,19,06,32,122,23,12,61,178,24,14,07,224,15*7C
$GPGSV,3,2,10,19,11,132,21,24,62,357,21,25,36,230,29,29,34,296,29*70
$GPGSV,3,3,10,32,13,241,17,15,00,000,*7E
$GLGSV,2,1,07,78,09,216,18,86,37,150,21,77,56,195,15,76,52,063,14*6A
$GLGSV,2,2,07,75,05,046,20,88,28,323,23,87,79,305,22*5B
$GPGSA,A,3,02,06,12,14,19,24,25,29,32,,,,1.0,0.7,0.7*32
$GPVTG,302.8,T,302.8,M,8.0,N,14.8,K,A*16
$GPRMC,173338,A,3436.389019,S,05822.148070,W,8.0,302.8,171117,5.4,W,A*04
$GPGGA,173338,3436.389019,S,05822.148070,W,1,09,0.7,1.0,M,22.0,M,,*40
$GPGSV,3,1,10,02,54,073,19,06,32,122,23,12,61,178,24,14,07,224,15*7C
$GPGSV,3,2,10,19,11,132,20,24,62,357,23,25,36,230,30,29,34,296,31*72
$GPGSV,3,3,10,32,13,241,17,15,00,000,*7E
$GLGSV,2,1,07,78,09,216,19,86,37,150,27,77,56,195,14,76,52,063,14*6C
$GLGSV,2,2,07,75,05,046,21,88,28,323,21,87,79,305,21*5B
$GPGSA,A,3,02,06,12,14,19,24,25,29,32,,,,1.0,0.7,0.7*32
$GPVTG,301.7,T,301.7,M,6.3,N,11.7,K,A*11
$GPRMC,173339,A,3436.388093,S,05822.150463,W,6.3,301.7,171117,5.4,W,A*08
$GPGGA,173339,3436.388093,S,05822.150463,W,1,09,0.7,2.0,M,22.0,M,,*4E
$GPGSV,3,1,10,02,54,073,19,06,32,122,11,12,61,178,22,14,07,224,18*76
$GPGSV,3,2,10,19,11,132,23,24,62,357,20,25,36,230,27,29,34,296,31*74
$GPGSV,3,3,10,32,13,241,17,15,00,000,*7E
$GLGSV,2,1,07,78,09,216,20,86,37,150,29,77,56,195,18,76,52,063,14*64
$GLGSV,2,2,07,75,05,046,21,88,28,323,21,87,79,305,19*50
$GPGSA,A,3,02,06,12,14,19,24,25,29,32,,,,1.0,0.7,0.7*32
$GPVTG,314.1,T,314.1,M,6.2,N,11.5,K,A*12
$GPRMC,173340,A,3436.387044,S,05822.152574,W,6.2,314.1,171117,5.4,W,A*05
$GPGGA,173340,3436.387044,S,05822.152574,W,1,09,0.7,2.0,M,22.0,M,,*40
$GPGSV,3,1,10,02,54,073,19,06,32,122,11,12,61,178,23,14,07,224,21*7D
$GPGSV,3,2,10,19,11,132,21,24,62,357,19,25,36,230,27,29,34,296,30*7D
$GPGSV,3,3,10,32,13,241,17,15,00,000,*7E
$GLGSV,2,1,07,78,09,216,18,86,37,150,28,77,56,195,18,76,52,063,15*6F
$GLGSV,2,2,07,75,05,046,15,88,28,323,17,87,79,305,17*5C
$GPGSA,A,3,02,06,12,14,19,24,25,29,32,,,,1.0,0.7,0.7*32
$GPVTG,300.7,T,300.7,M,4.2,N,7.8,K,A*2A
$GPRMC,173341,A,3436.387359,S,05822.154538,W,4.2,300.7,171117,5.4,W,A*04
$GPGGA,173341,3436.387359,S,05822.154538,W,1,09,0.7,2.0,M,22.0,M,,*40
$GPGSV,3,1,10,02,54,073,19,06,32,122,17,12,61,178,25,14,07,224,23*7F
$GPGSV,3,2,10,19,11,132,24,24,62,357,19,25,36,230,27,29,34,296,33*7B
$GPGSV,3,3,10,32,13,241,17,15,00,000,*7E
$GLGSV,2,1,07,78,09,216,18,86,37,150,28,77,56,195,20,76,52,063,22*60
$GLGSV,2,2,07,75,05,046,21,88,28,323,20,87,79,305,18*50
$GPGSA,A,3,02,06,12,14,19,24,25,29,32,,,,1.0,0.7,0.7*32
$GPVTG,310.7,T,310.7,M,3.2,N,6.0,K,A*24
$GPRMC,173342,A,3436.386459,S,05822.154211,W,3.2,310.7,171117,5.4,W,A*0B
$GPGGA,173342,3436.386459,S,05822.154211,W,1,09,0.7,3.0,M,22.0,M,,*48
$GPGSV,3,1,10,02,54,073,14,06,32,122,17,12,61,178,26,14,07,224,20*72
$GPGSV,3,2,10,19,11,132,25,24,62,357,19,25,36,230,25,29,34,296,33*78
$GPGSV,3,3,10,32,13,241,17,15,00,000,*7E
$GLGSV,2,1,07,78,09,216,17,86,37,150,26,77,56,195,20,76,52,063,22*61
$GLGSV,2,2,07,75,05,046,19,88,28,323,20,87,79,305,17*54
$GPGSA,A,3,02,06,12,14,19,24,25,29,32,,,,1.0,0.7,0.7*32
$GPVTG,345.9,T,345.9,M,2.1,N,4.0,K,A*24
$GPRMC,173343,A,3436.385650,S,05822.152814,W,2.1,345.9,171117,5.4,W,A*07
$GPGGA,173343,3436.385650,S,05822.152814,W,1,09,0.7,4.0,M,22.0,M,,*4F
$GPGSV,3,1,10,02,54,073,14,06,32,122,17,12,61,178,30,14,07,224,20*75
$GPGSV,3,2,10,19,11,132,19,24,62,357,19,25,36,230,25,29,34,296,32*76
$GPGSV,3,3,10,32,13,241,17,15,00,000,*7E
$GLGSV,2,1,07,78,09,216,21,86,37,150,26,77,56,195,20,76,52,063,23*65
$GLGSV,2,2,07,75,05,046,25,88,28,323,16,87,79,305,17*5E
$GPGSA,A,3,02,06,12,14,19,24,25,29,32,,,,1.0,0.7,0.7*32
$GPVTG,8.3,T,8.3,M,2.4,N,4.4,K,A*25
$GPRMC,173344,A,3436.384462,S,05822.152704,W,2.4,8.3,171117,5.4,W,A*09
$GPGGA,173344,3436.384462,S,05822.152704,W,1,09,0.7,5.0,M,22.0,M,,*45
$GPGSV,3,1,10,02,54,073,14,06,32,122,17,12,61,178,25,14,07,224,20*71
$GPGSV,3,2,10,19,11,132,19,24,62,357,19,25,36,230,21,29,34,296,26*77
$GPGSV,3,3,10,32,13,241,17,15,00,000,*7E
$GLGSV,2,1,07,78,09,216,20,86,37,150,26,77,56,195,17,76,52,063,23*60
$GLGSV,2,2,07,75,05,046,23,88,28,323,16,87,79,305,17*58
$GPGSA,A,3,02,06,12,14,19,24,25,29,32,,,,1.0,0.7,0.7*32
$GPVTG,27.0,T,27.0,M,1.4,N,2.7,K,A*23
$GPRMC,173345,A,3436.384670,S,05822.152881,W,1.4,27.0,171117,5.4,W,A*36
$GPGGA,173345,3436.384670,S,05822.152881,W,1,09,0.7,6.0,M,22.0,M,,*44
$GPGSV,3,1,10,02,54,073,20,06,32,122,17,12,61,177,30,14,07,224,16*78
$GPGSV,3,2,10,19,11,132,21,25,36,230,28,29,34,296,33,32,13,241,17*78
$GPGSV,3,3,10,15,00,000,,24,62,357,*7F
$GLGSV,2,1,07,78,09,216,23,86,37,150,20,77,56,195,21,76,52,063,21*62
$GLGSV,2,2,07,75,05,046,25,88,28,323,16,87,79,303,17*58
$GPGSA,A,3,02,06,12,14,19,25,29,32,,,,,1.0,0.7,0.7*34
$GPVTG,,T,,M,0.0,N,0.0,K,A*23
$GPRMC,173346,A,3436.385739,S,05822.153328,W,0.0,,171117,5.4,W,A*2F
$GPGGA,173346,3436.385739,S,05822.153328,W,1,08,0.7,7.0,M,22.0,M,,*43
$GPGSV,3,1,10,02,54,073,20,06,32,122,14,12,61,177,29,14,07,224,16*73
$GPGSV,3,2,10,19,11,132,20,25,36,230,29,29,34,296,30,32,13,241,17*7B
$GPGSV,3,3,10,15,00,000,,24,62,357,*7F
$GLGSV,2,1,07,78,09,216,20,86,37,150,20,77,56,195,22,76,52,063,23*60
$GLGSV,2,2,07,75,05,046,25,88,28,323,17,87,79,303,17*59
$GPGSA,A,3,02,06,12,14,19,25,29,32,,,,,1.0,0.7,0.7*34
$GPVTG,,T,,M,0.0,N,0.0,K,A*23
$GPRMC,173347,A,3436.385845,S,05822.153747,W,0.0,,171117,5.4,W,A*27
$GPGGA,173347,3436.385845,S,05822.153747,W,1,08,0.7,8.0,M,22.0,M,,*44
$GPGSV,3,1,10,02,54,073,20,06,32,122,14,12,61,177,30,14,07,224,17*7A
$GPGSV,3,2,10,19,11,132,19,24,62,357,18,25,36,230,28,29,34,296,30*78
$GPGSV,3,3,10,15,00,000,,32,13,241,*78
$GLGSV,2,1,07,78,09,216,20,86,37,150,22,77,56,195,22,76,52,063,23*62
$GLGSV,2,2,07,75,05,046,25,88,28,323,18,87,79,303,14*55
$GPGSA,A,3,02,06,12,14,19,24,25,29,,,,,1.0,0.7,0.7*33
$GPVTG,,T,,M,0.0,N,0.0,K,A*23
$GPRMC,173348,A,3436.386239,S,05822.153358,W,0.0,,171117,5.4,W,A*20
$GPGGA,173348,3436.386239,S,05822.153358,W,1,08,0.7,8.0,M,22.0,M,,*43
$GPGSV,3,1,10,02,54,073,18,06,32,122,14,12,61,177,28,14,07,224,17*78
$GPGSV,3,2,10,19,11,132,18,24,62,357,18,25,36,230,26,29,34,296,27*71
$GPGSV,3,3,10,15,00,000,,32,13,241,*78
$GLGSV,2,1,07,78,09,216,18,86,37,150,20,77,56,195,21,76,52,063,16*6E
$GLGSV,2,2,07,75,05,046,26,88,28,323,18,87,79,303,14*56
$GPGSA,A,3,02,06,12,14,19,24,25,29,,,,,1.0,0.7,0.7*33
$GPVTG,,T,,M,0.0,N,0.0,K,A*23
$GPRMC,173349,A,3436.386780,S,05822.153392,W,0.0,,171117,5.4,W,A*20
$GPGGA,173349,3436.386780,S,05822.153392,W,1,08,0.7,9.0,M,22.0,M,,*42
$GPGSV,3,1,10,02,54,073,20,06,32,122,14,12,61,177,28,14,07,224,17*73
$GPGSV,3,2,10,19,11,132,21,24,62,357,18,25,36,230,26,29,34,296,28*74
$GPGSV,3,3,10,15,00,000,,32,13,241,*78
$GLGSV,2,1,07,78,09,216,22,86,37,150,19,77,56,195,22,76,52,063,16*6E
$GLGSV,2,2,07,75,05,046,24,88,28,323,18,87,79,303,14*54
$GPGSA,A,3,02,06,12,14,19,24,25,29,,,,,1.0,0.7,0.7*33
$GPVTG,,T,,M,0.0,N,0.0,K,A*23
$GPRMC,173350,A,3436.386704,S,05822.153727,W,0.0,,171117,5.4,W,A*2E
$GPGGA,173350,3436.386704,S,05822.153727,W,1,08,0.7,10.0,M,22.0,M,,*74
$GPGSV,3,1,10,02,54,073,21,06,32,122,17,12,61,177,29,14,07,224,17*70
$GPGSV,3,2,10,19,11,132,23,24,62,357,18,25,36,230,26,29,34,296,29*77
$GPGSV,3,3,10,15,00,000,,32,13,241,*78
$GLGSV,2,1,07,78,09,216,25,86,37,150,27,77,56,195,19,76,52,063,16*6C
$GLGSV,2,2,07,75,05,046,27,88,28,323,18,87,79,303,14*57
$GPGSA,A,3,02,06,12,14,19,24,25,29,,,,,1.0,0.7,0.7*33
$GPVTG,,T,,M,0.0,N,0.0,K,A*23
$GPRMC,173351,A,3436.386814,S,05822.154399,W,0.0,,171117,5.4,W,A*27
$GPGGA,173351,3436.386814,S,05822.154399,W,1,08,0.7,9.0,M,22.0,M,,*45
$GPGSV,3,1,10,02,54,073,24,06,32,122,22,12,61,177,28,14,07,224,19*7C
$GPGSV,3,2,10,19,11,132,26,24,62,357,15,25,36,230,27,29,34,296,30*76
$GPGSV,3,3,10,15,00,000,,32,13,241,*78
$GLGSV,2,1,07,78,09,216,25,86,37,150,27,77,56,195,19,76,52,063,17*6D
$GLGSV,2,2,07,75,05,046,27,88,28,323,14,87,79,303,14*5B
$GPGSA,A,3,02,06,12,14,19,24,25,29,,,,,1.0,0.7,0.7*33
$GPVTG,,T,,M,0.0,N,0.0,K,A*23
$GPRMC,173352,A,3436.386870,S,05822.154794,W,0.0,,171117,5.4,W,A*2F
$GPGGA,173352,3436.386870,S,05822.154794,W,1,08,0.7,10.0,M,22.0,M,,*75
$GPGSV,3,1,10,02,54,073,22,06,32,122,20,12,61,177,26,14,07,224,19*76
$GPGSV,3,2,10,19,11,132,23,24,62,357,17,25,36,230,25,29,34,296,27*75
$GPGSV,3,3,10,15,00,000,,32,13,241,*78
$GLGSV,2,1,07,78,09,216,23,86,37,150,24,77,56,195,20,76,52,063,23*65
$GLGSV,2,2,07,75,05,046,26,88,28,323,16,87,79,303,17*5B
$GPGSA,A,3,02,06,12,14,19,24,25,29,,,,,1.0,0.7,0.7*33
$GPVTG,,T,,M,0.0,N,0.0,K,A*23
$GPRMC,173353,A,3436.386909,S,05822.155124,W,0.0,,171117,5.4,W,A*2D
$GPGGA,173353,3436.386909,S,05822.155124,W,1,08,0.7,10.0,M,22.0,M,,*77
$GPGSV,3,1,10,02,54,073,22,06,32,122,20,12,61,177,28,14,07,224,17*76
$GPGSV,3,2,10,19,11,132,23,24,62,357,16,25,36,230,21,29,34,296,26*71
$GPGSV,3,3,10,15,00,000,,32,13,241,*78
$GLGSV,2,1,07,78,09,216,22,86,37,150,26,77,56,195,21,76,52,063,20*64
$GLGSV,2,2,07,75,05,046,21,88,28,323,16,87,79,303,17*5C
$GPGSA,A,3,02,06,12,14,19,24,25,29,,,,,1.0,0.7,0.7*33
$GPVTG,,T,,M,0.0,N,0.0,K,A*23
$GPRMC,173354,A,3436.386883,S,05822.155384,W,0.0,,171117,5.4,W,A*21
$GPGGA,173354,3436.386883,S,05822.155384,W,1,08,0.7,10.0,M,22.0,M,,*7B
$GPGSV,3,1,10,02,54,073,22,06,32,122,20,12,61,177,26,14,07,224,17*78
$GPGSV,3,2,10,19,11,132,19,24,62,357,16,25,36,230,21,29,34,296,24*7A
$GPGSV,3,3,10,15,00,000,,32,13,241,*78
$GLGSV,2,1,07,78,09,216,22,86,37,150,25,77,56,195,20,76,52,063,20*66
$GLGSV,2,2,07,75,05,046,21,88,28,323,16,87,79,303,17*5C
$GPGSA,A,3,02,06,12,14,19,24,25,29,,,,,1.0,0.7,0.7*33
$GPVTG,,T,,M,0.0,N,0.0,K,A*23
$GPRMC,173355,A,3436.386863,S,05822.155590,W,0.0,,171117,5.4,W,A*2D
$GPGGA,173355,3436.386863,S,05822.155590,W,1,08,0.7,11.0,M,22.0,M,,*76
$GPGSV,3,1,10,02,54,073,18,06,32,122,20,12,61,177,31,14,07,224,17*77
$GPGSV,3,2,10,19,11,132,27,24,62,357,17,25,36,230,22,29,34,296,30*70
$GPGSV,3,3,10,15,00,000,,32,13,241,*78
$GLGSV,2,1,07,78,09,216,20,86,37,150,24,77,56,195,22,76,52,063,21*66
$GLGSV,2,2,07,75,05,046,18,88,28,323,16,87,79,303,17*56
$GPGSA,A,3,02,06,12,14,19,24,25,29,,,,,1.0,0.7,0.7*33
$GPVTG,,T,,M,0.0,N,0.0,K,A*23
$GPRMC,173356,A,3436.386740,S,05822.155663,W,0.0,,171117,5.4,W,A*2F
$GPGGA,173356,3436.386740,S,05822.155663,W,1,08,0.7,11.0,M,22.0,M,,*74
$GPGSV,3,1,10,02,54,073,18,06,32,122,20,12,61,177,29,14,07,224,17*7E
$GPGSV,3,2,10,19,11,132,24,24,62,357,20,25,36,230,25,29,34,296,28*79
$GPGSV,3,3,10,15,00,000,,32,13,241,*78
$GLGSV,2,1,07,78,09,216,23,86,37,150,24,77,56,195,23,76,52,063,20*65
$GLGSV,2,2,07,75,05,046,24,88,28,323,16,87,79,303,17*59
$GPGSA,A,3,02,06,12,14,19,24,25,29,,,,,1.0,0.7,0.7*33
$GPVTG,,T,,M,0.0,N,0.0,K,A*23
$GPRMC,173357,A,3436.386617,S,05822.155632,W,0.0,,171117,5.4,W,A*29
$GPGGA,173357,3436.386617,S,05822.155632,W,1,08,0.7,11.0,M,22.0,M,,*72
$GPGSV,3,1,10,02,54,073,18,06,32,122,15,12,61,177,28,14,07,224,17*79
$GPGSV,3,2,10,19,11,132,24,24,62,357,20,25,36,230,28,29,34,296,29*75
$GPGSV,3,3,10,15,00,000,,32,13,241,*78
$GLGSV,2,1,07,78,09,216,18,86,37,150,26,77,56,195,22,76,52,063,18*65
$GLGSV,2,2,07,75,05,046,22,88,28,323,13,87,79,303,16*5B
$GPGSA,A,3,02,06,12,14,19,24,25,29,,,,,1.0,0.7,0.7*33
$GPVTG,,T,,M,0.0,N,0.0,K,A*23
$GPRMC,173358,A,3436.386680,S,05822.155636,W,0.0,,171117,5.4,W,A*2C
$GPGGA,173358,3436.386680,S,05822.155636,W,1,08,0.7,11.0,M,22.0,M,,*77
$GPGSV,3,1,10,02,54,073,20,06,32,122,15,12,61,177,26,14,07,224,17*7C
$GPGSV,3,2,10,19,11,132,21,24,62,357,19,25,36,230,26,29,34,296,28*75
$GPGSV,3,3,10,15,00,000,,32,13,241,*78
$GLGSV,2,1,07,78,09,216,24,86,37,150,26,77,56,195,22,76,52,063,18*6A
$GLGSV,2,2,07,75,05,046,23,88,28,323,13,87,79,303,16*5A
$GPGSA,A,3,02,06,12,14,19,24,25,29,,,,,1.0,0.7,0.7*33
$GPVTG,,T,,M,0.0,N,0.0,K,A*23
$GPRMC,173359,A,3436.386453,S,05822.155559,W,0.0,,171117,5.4,W,A*2B
$GPGGA,173359,3436.386453,S,05822.155559,W,1,08,0.7,12.0,M,22.0,M,,*73
$GPGSV,3,1,10,02,54,073,20,06,32,122,15,12,61,177,24,14,07,224,17*7E
$GPGSV,3,2,10,19,11,132,19,24,62,357,19,25,36,230,22,29,34,296,26*74
$GPGSV,3,3,10,15,00,000,,32,13,241,*78
$GLGSV,2,1,07,78,09,216,22,86,37,150,23,77,56,195,22,76,52,063,18*69
$GLGSV,2,2,07,75,05,046,23,88,28,323,13,87,79,303,16*5A
$GPGSA,A,3,02,06,12,14,19,24,25,29,,,,,1.0,0.7,0.7*33
$GPVTG,,T,,M,0.0,N,0.0,K,A*23
$GPRMC,173400,A,3436.386426,S,05822.155548,W,0.0,,171117,5.4,W,A*22
$GPGGA,173400,3436.386426,S,05822.155548,W,1,08,0.7,12.0,M,22.0,M,,*7A
$GPGSV,3,1,10,02,54,073,18,06,32,122,15,12,61,177,25,14,07,224,17*74
$GPGSV,3,2,10,19,11,132,24,24,62,357,18,25,36,230,24,29,34,296,27*7C
$GPGSV,3,3,10,15,00,000,,32,13,241,*78
$GLGSV,2,1,07,78,09,216,23,86,37,150,23,77,56,195,20,76,52,063,18*6A
$GLGSV,2,2,07,75,05,046,23,88,28,323,13,87,79,303,16*5A
$GPGSA,A,3,02,06,12,14,19,24,25,29,,,,,1.0,0.7,0.7*33
$GPVTG,,T,,M,0.0,N,0.0,K,A*23
$GPRMC,173401,A,3436.386462,S,05822.155563,W,0.0,,171117,5.4,W,A*2A
$GPGGA,173401,3436.386462,S,05822.155563,W,1,08,0.7,12.0,M,22.0,M,,*72
$GPGSV,3,1,10,02,54,073,24,06,32,122,16,12,61,177,28,14,07,224,16*74
$GPGSV,3,2,10,19,11,132,25,24,62,357,22,25,36,230,28,29,34,296,30*7E
$GPGSV,3,3,10,15,00,000,,32,13,241,*78
$GLGSV,2,1,07,78,09,216,22,86,37,150,25,77,56,195,24,76,52,063,18*69
$GLGSV,2,2,07,75,05,046,25,88,28,323,18,87,79,303,19*58
$GPGSA,A,3,02,06,12,14,19,24,25,29,,,,,1.0,0.7,0.7*33
$GPVTG,,T,,M,0.0,N,0.0,K,A*23
$GPRMC,173402,A,3436.386309,S,05822.155699,W,0.0,,171117,5.4,W,A*25
$GPGGA,173402,3436.386309,S,05822.155699,W,1,08,0.7,12.0,M,22.0,M,,*7D
$GPGSV,3,1,10,02,54,073,23,06,32,122,20,12,61,177,27,14,07,224,22*7E
$GPGSV,3,2,10,19,11,132,26,24,62,357,19,25,36,230,25,29,34,296,29*70
$GPGSV,3,3,10,15,00,000,,32,13,241,*78
$GLGSV,2,1,07,78,09,216,22,86,37,150,25,77,56,195,23,76,52,063,18*6E
$GLGSV,2,2,07,75,05,046,26,88,28,323,18,87,79,303,17*55
$GPGSA,A,3,02,06,12,14,19,24,25,29,,,,,1.0,0.7,0.7*33
$GPVTG,,T,,M,0.0,N,0.0,K,A*23
$GPRMC,173403,A,3436.386358,S,05822.155790,W,0.0,,171117,5.4,W,A*28
$GPGGA,173403,3436.386358,S,05822.155790,W,1,08,0.7,12.0,M,22.0,M,,*70
$GPGSV,3,1,10,02,54,073,21,06,32,122,20,12,61,177,29,14,07,224,18*7B
$GPGSV,3,2,10,19,11,132,24,24,62,357,19,25,36,230,24,29,34,296,29*73
$GPGSV,3,3,10,15,00,000,,32,13,241,*78
$GLGSV,2,1,07,78,09,216,21,86,37,150,26,77,56,195,23,76,52,063,18*6E
$GLGSV,2,2,07,75,05,046,25,88,28,323,18,87,79,303,17*56
$GPGSA,A,3,02,06,12,14,19,24,25,29,,,,,1.0,0.7,0.7*33
$GPVTG,,T,,M,0.0,N,0.0,K,A*23
$GPRMC,173404,A,3436.386414,S,05822.155845,W,0.0,,171117,5.4,W,A*27
$GPGGA,173404,3436.386414,S,05822.155845,W,1,08,0.7,12.0,M,22.0,M,,*7F
$GPGSV,3,1,10,02,54,073,21,06,32,122,20,12,61,177,29,14,07,224,20*70
$GPGSV,3,2,10,19,11,132,27,24,62,357,16,25,36,230,22,29,34,296,29*79
$GPGSV,3,3,10,15,00,000,,32,13,241,*78
$GLGSV,2,1,07,78,09,216,23,86,37,150,27,77,56,195,25,76,52,063,18*6B
$GLGSV,2,2,07,75,05,046,24,88,28,323,17,87,79,303,17*58
$GPGSA,A,3,02,06,12,14,19,24,25,29,,,,,1.0,0.7,0.7*33
$GPVTG,,T,,M,0.0,N,0.0,K,A*23
$GPRMC,173405,A,3436.386398,S,05822.155826,W,0.0,,171117,5.4,W,A*20
$GPGGA,173405,3436.386398,S,05822.155826,W,1,08,0.7,12.0,M,22.0,M,,*78
$GPGSV,3,1,10,02,54,073,21,06,32,122,20,12,61,177,26,14,07,224,20*7F
$GPGSV,3,2,10,19,11,132,23,24,62,357,19,25,36,230,27,29,34,296,32*7D
$GPGSV,3,3,10,15,00,000,,32,13,241,*78
$GLGSV,2,1,07,78,09,216,18,86,37,150,28,77,56,195,25,76,52,063,18*6C
$GLGSV,2,2,07,75,05,046,24,88,28,323,17,87,79,303,17*58
$GPGSA,A,3,02,06,12,14,19,24,25,29,,,,,1.0,0.7,0.7*33
$GPVTG,,T,,M,0.0,N,0.0,K,A*23
$GPRMC,173406,A,3436.386392,S,05822.155838,W,0.0,,171117,5.4,W,A*26
$GPGGA,173406,3436.386392,S,05822.155838,W,1,08,0.7,12.0,M,22.0,M,,*7E
$GPGSV,3,1,10,02,54,073,21,06,32,122,20,12,61,177,25,14,07,224,20*7C
$GPGSV,3,2,10,19,11,132,23,24,62,357,19,25,36,230,23,29,34,296,29*73
$GPGSV,3,3,10,15,00,000,,32,13,241,*78
$GLGSV,2,1,07,78,09,216,18,86,37,150,27,77,56,195,22,76,52,063,18*64
$GLGSV,2,2,07,75,05,046,23,88,28,323,17,87,79,303,17*5F
$GPGSA,A,3,02,06,12,14,19,24,25,29,,,,,1.0,0.7,0.7*33
$GPVTG,,T,,M,0.0,N,0.0,K,A*23
$GPRMC,173407,A,3436.386385,S,05822.155851,W,0.0,,171117,5.4,W,A*2E
$GPGGA,173407,3436.386385,S,05822.155851,W,1,08,0.7,12.0,M,22.0,M,,*76
$GPGSV,3,1,10,02,54,073,18,06,32,122,14,12,61,177,31,14,07,224,18*7F
$GPGSV,3,2,10,19,11,132,28,24,62,357,19,25,36,230,27,29,34,296,31*75
$GPGSV,3,3,10,15,00,000,,32,13,241,*78
$GLGSV,2,1,07,78,09,216,20,86,37,150,27,77,56,195,24,76,52,063,13*62
$GLGSV,2,2,07,75,05,046,27,88,28,323,14,87,79,303,17*58
$GPGSA,A,3,02,06,12,14,19,24,25,29,,,,,1.0,0.7,0.7*33
$GPVTG,,T,,M,0.0,N,0.0,K,A*23
$GPRMC,173408,A,3436.386353,S,05822.155920,W,0.0,,171117,5.4,W,A*2D
$GPGGA,173408,3436.386353,S,05822.155920,W,1,08,0.7,12.0,M,22.0,M,,*75
$GPGSV,3,1,10,02,54,073,18,06,32,122,21,12,61,177,30,14,07,224,20*73
$GPGSV,3,2,10,19,11,132,26,24,62,357,19,25,36,230,29,29,34,296,32*76
$GPGSV,3,3,10,15,00,000,,32,13,241,*78
$GLGSV,2,1,07,78,09,216,25,86,37,150,28,77,56,195,23,76,52,063,13*6F
$GLGSV,2,2,07,75,05,046,27,88,28,323,16,87,79,303,17*5A
$GPGSA,A,3,02,06,12,14,19,24,25,29,,,,,1.0,0.7,0.7*33
$GPVTG,,T,,M,0.0,N,0.0,K,A*23
$GPRMC,173409,A,3436.386291,S,05822.156040,W,0.0,,171117,5.4,W,A*2F
$GPGGA,173409,3436.386291,S,05822.156040,W,1,08,0.7,12.0,M,22.0,M,,*77
$GPGSV,3,1,10,02,54,073,17,06,32,122,21,12,61,177,28,14,07,224,20*75
$GPGSV,3,2,10,19,11,132,24,24,62,357,19,25,36,230,26,29,34,296,29*71
$GPGSV,3,3,10,15,00,000,,32,13,241,*78
$GLGSV,2,1,07,78,09,216,25,86,37,150,25,77,56,195,23,76,52,063,13*62
$GLGSV,2,2,07,75,05,046,25,88,28,323,16,87,79,303,17*58
$GPGSA,A,3,02,06,12,14,19,24,25,29,,,,,1.0,0.7,0.7*33
$GPVTG,,T,,M,0.0,N,0.0,K,A*23
$GPRMC,173410,A,3436.386276,S,05822.156058,W,0.0,,171117,5.4,W,A*27
$GPGGA,173410,3436.386276,S,05822.156058,W,1,08,0.7,12.0,M,22.0,M,,*7F
$GPGSV,3,1,10,02,54,073,17,06,32,122,21,12,61,177,25,14,07,224,17*7C
$GPGSV,3,2,10,19,11,132,22,24,62,357,19,25,36,230,21,29,34,296,26*7F
$GPGSV,3,3,10,15,00,000,,32,13,241,*78
$GLGSV,2,1,07,78,09,216,22,86,37,150,25,77,56,195,21,76,52,063,13*67
$GLGSV,2,2,07,75,05,046,26,88,28,323,16,87,79,303,17*5B
$GPGSA,A,3,02,06,12,14,19,24,25,29,,,,,1.0,0.7,0.7*33
$GPVTG,,T,,M,0.0,N,0.0,K,A*23
$GPRMC,173411,A,3436.386264,S,05822.156073,W,0.0,,171117,5.4,W,A*2C
$GPGGA,173411,3436.386264,S,05822.156073,W,1,08,0.7,12.0,M,22.0,M,,*74
$GPGSV,3,1,10,02,54,073,20,06,32,122,16,12,61,177,32,14,07,224,23*7D
$GPGSV,3,2,10,19,11,132,28,25,36,230,24,29,34,296,31,15,00,000,*79
$GPGSV,3,3,10,24,62,357,,32,13,241,*7F
$GLGSV,2,1,07,78,09,216,24,86,37,150,26,77,56,195,23,76,52,063,13*60
$GLGSV,2,2,07,75,05,046,29,88,28,323,16,87,79,303,17*54
$GPGSA,A,3,02,06,12,14,19,25,29,,,,,,1.0,0.7,0.7*35
$GPVTG,,T,,M,0.0,N,0.0,K,A*23
$GPRMC,173412,A,3436.386257,S,05822.156093,W,0.0,,171117,5.4,W,A*21
$GPGGA,173412,3436.386257,S,05822.156093,W,1,07,0.7,12.0,M,22.0,M,,*76
$GPGSV,3,1,10,02,54,073,20,06,32,122,16,12,61,177,25,14,07,224,21*79
$GPGSV,3,2,10,19,11,132,23,25,36,230,19,29,34,296,25,15,00,000,*79
$GPGSV,3,3,10,24,62,357,,32,13,241,*7F
$GLGSV,2,1,07,78,09,216,22,86,37,150,24,77,56,195,23,76,52,063,13*64
$GLGSV,2,2,07,75,05,046,27,88,28,323,12,87,79,303,17*5E
$GPGSA,A,3,02,06,12,14,19,25,29,,,,,,1.0,0.7,0.7*35
$GPVTG,,T,,M,0.0,N,0.0,K,A*23
$GPRMC,173413,A,3436.386252,S,05822.156109,W,0.0,,171117,5.4,W,A*27
$GPGGA,173413,3436.386252,S,05822.156109,W,1,07,0.7,13.0,M,22.0,M,,*71
