$GPGSV,3,1,10,02,55,085,,05,00,000,,06,29,127,,12,62,164,*7D
$GPGSV,3,2,10,14,09,230,,19,06,129,,24,00,000,,25,41,224,*70
$GPGSV,3,3,10,29,39,289,,32,12,248,*76
$GLGSV,2,1,07,74,00,000,,86,82,216,,77,12,213,,76,68,182,*64
$GLGSV,2,2,07,75,49,057,,87,30,319,,85,28,149,*53
$GPGSA,A,1,,,,,,,,,,,,,,,*1E
$GPVTG,,T,,M,,N,,K,N*2C
$GPRMC,,V,,,,,,,,,,N*53
$GPGGA,,,,,,0,,,,,,,,*66
$GPGSV,3,1,10,02,55,085,,05,00,000,,06,29,127,,12,62,164,*7D
$GPGSV,3,2,10,14,09,230,,19,06,129,,24,00,000,,25,41,224,*70
$GPGSV,3,3,10,29,39,289,,32,12,248,*76
$GLGSV,2,1,07,74,00,000,,86,82,216,,77,12,213,,76,68,182,*64
$GLGSV,2,2,07,75,49,057,,87,30,319,,85,28,149,*53
$GPGSA,A,1,,,,,,,,,,,,,,,*1E
$GPVTG,,T,,M,,N,,K,N*2C
$GPRMC,,V,,,,,,,,,,N*53
$GPGGA,,,,,,0,,,,,,,,*66
$GPGSV,3,1,10,02,55,085,,05,00,000,,06,29,127,,12,62,164,*7D
$GPGSV,3,2,10,14,09,230,,19,06,129,,24,00,000,,25,41,224,*70
$GPGSV,3,3,10,29,39,289,,32,12,248,*76
$GLGSV,2,1,07,74,00,000,,86,82,216,,77,12,213,,76,68,182,*64
$GLGSV,2,2,07,75,49,057,,87,30,319,,85,28,149,*53
$GPGSA,A,1,,,,,,,,,,,,,,,*1E
$GPVTG,,T,,M,,N,,K,N*2C
$GPRMC,,V,,,,,,,,,,N*53
$GPGGA,,,,,,0,,,,,,,,*66
$GPGSV,3,1,10,02,55,085,,05,00,000,,06,29,127,,12,62,164,*7D
$GPGSV,3,2,10,14,09,230,,19,06,129,,24,00,000,,25,41,224,*70
$GPGSV,3,3,10,29,39,289,,32,12,248,*76
$GLGSV,2,1,07,74,00,000,,86,82,216,,77,12,213,,76,68,182,*64
$GLGSV,2,2,07,75,49,057,,87,30,319,,85,28,149,*53
$GPGSA,A,1,,,,,,,,,,,,,,,*1E
$GPVTG,,T,,M,,N,,K,N*2C
$GPRMC,,V,,,,,,,,,,N*53
$GPGGA,,,,,,0,,,,,,,,*66
$GPGSV,3,1,10,02,55,085,,05,00,000,,06,29,127,,12,62,164,*7D
$GPGSV,3,2,10,14,09,230,,19,06,129,,24,00,000,,25,41,224,*70
$GPGSV,3,3,10,29,39,289,,32,12,248,*76
$GLGSV,2,1,07,74,00,000,,86,82,216,,77,12,213,,76,68,182,*64
$GLGSV,2,2,07,75,49,057,,87,30,319,,85,28,149,*53
$GPGSA,A,1,,,,,,,,,,,,,,,*1E
$GPVTG,,T,,M,,N,,K,N*2C
$GPRMC,,V,,,,,,,,,,N*53
$GPGGA,,,,,,0,,,,,,,,*66
$GPGSV,3,1,10,02,55,085,,05,00,000,,06,29,127,,12,62,164,*7D
$GPGSV,3,2,10,14,09,230,,19,06,129,,24,00,000,,25,41,224,*70
$GPGSV,3,3,10,29,39,289,,32,12,248,*76
$GLGSV,2,1,07,74,00,000,,86,82,216,,77,12,213,,76,68,182,*64
$GLGSV,2,2,07,75,49,057,,87,30,319,,85,28,149,*53
$GPGSA,A,1,,,,,,,,,,,,,,,*1E
$GPVTG,,T,,M,,N,,K,N*2C
$GPRMC,,V,,,,,,,,,,N*53
$GPGGA,,,,,,0,,,,,,,,*66
$GPGSV,3,1,10,02,55,085,,05,00,000,,06,29,127,,12,62,164,*7D
$GPGSV,3,2,10,14,09,230,,19,06,129,,24,00,000,,25,41,224,*70
$GPGSV,3,3,10,29,39,289,,32,12,248,*76
$GLGSV,2,1,07,85,28,149,27,74,00,000,,86,82,216,,77,12,213,*6E
$GLGSV,2,2,07,76,68,182,,75,49,057,,87,30,319,*5C
$GPGSA,A,1,,,,,,,,,,,,,,,*1E
$GPVTG,,T,,M,,N,,K,N*2C
$GPRMC,,V,,,,,,,,,,N*53
$GPGGA,,,,,,0,,,,,,,,*66
$GPGSV,3,1,10,06,29,127,27,14,09,230,29,02,55,085,,05,00,000,*7A
$GPGSV,3,2,10,12,62,164,,19,06,129,,24,00,000,,25,41,224,*79
$GPGSV,3,3,10,29,39,289,,32,12,248,*76
$GLGSV,2,1,07,85,28,149,27,74,00,000,,86,82,216,,77,12,213,*6E
$GLGSV,2,2,07,76,68,182,,75,49,057,,87,30,319,*5C
$GPGSA,A,1,,,,,,,,,,,,,,,*1E
$GPVTG,,T,,M,,N,,K,N*2C
$GPRMC,,V,,,,,,,,,,N*53
$GPGGA,,,,,,0,,,,,,,,*66
$GPGSA,A,1,,,,,,,,,,,,,,,*1E
$GPVTG,,T,,M,,N,,K,N*2C
$GPRMC,,V,,,,,,,,,,N*53
$GPGGA,,,,,,0,,,,,,,,*66
$GPGSV,3,1,10,06,29,127,27,14,09,230,29,02,55,085,,05,00,000,*7A
$GPGSV,3,2,10,12,62,164,,19,06,129,,24,00,000,,25,41,224,*79
$GPGSV,3,3,10,29,39,289,,32,12,248,*76
$GLGSV,2,1,07,85,28,149,27,74,00,000,,86,82,216,,77,12,213,*6E
$GLGSV,2,2,07,76,68,182,,75,49,057,,87,30,319,*5C
$GPGSA,A,1,,,,,,,,,,,,,,,*1E
$GPVTG,,T,,M,,N,,K,N*2C
$GPRMC,,V,,,,,,,,,,N*53
$GPGGA,,,,,,0,,,,,,,,*66
$GPGSA,A,1,,,,,,,,,,,,,,,*1E
$GPVTG,,T,,M,,N,,K,N*2C
$GPRMC,,V,,,,,,,,,,N*53
$GPGGA,,,,,,0,,,,,,,,*66
$GPGSV,3,1,10,02,55,085,24,06,29,127,27,14,09,230,29,19,06,129,29*76
$GPGSV,3,2,10,25,41,224,22,05,00,000,,12,62,164,,24,00,000,*78
$GPGSV,3,3,10,29,39,289,,32,12,248,*76
$GLGSV,2,1,07,85,27,149,26,74,00,000,,86,82,215,,77,12,213,*63
$GLGSV,2,2,07,76,68,182,,75,49,057,,87,30,319,*5C
$GPGSA,A,1,,,,,,,,,,,,,,,*1E
$GPVTG,,T,,M,,N,,K,N*2C
$GPRMC,,V,,,,,,,,,,N*53
$GPGGA,,,,,,0,,,,,,,,*66
$GPGSV,3,1,10,02,55,085,21,06,29,127,19,12,62,164,23,14,09,230,29*74
$GPGSV,3,2,10,19,06,129,24,25,41,224,19,32,12,248,16,05,00,000,*7B
$GPGSV,3,3,10,24,00,000,,29,39,289,*7C
$GLGSV,2,1,07,85,27,149,26,74,00,000,,86,82,215,,77,13,213,*62
$GLGSV,2,2,07,76,68,182,,75,49,057,,87,30,319,*5C
$GPGSA,A,1,,,,,,,,,,,,,,,*1E
$GPVTG,,T,,M,,N,,K,N*2C
$GPRMC,,V,,,,,,,,,,N*53
$GPGGA,,,,,,0,,,,,,,,*66
$GPGSV,3,1,10,02,55,085,21,06,29,127,22,12,62,163,21,14,09,230,29*79
$GPGSV,3,2,10,19,06,129,19,25,41,224,18,32,12,248,22,05,00,000,*73
$GPGSV,3,3,10,24,00,000,,29,39,289,*7C
$GLGSV,2,1,07,85,27,149,27,74,00,000,,86,82,215,,77,13,213,*63
$GLGSV,2,2,07,76,68,182,,75,49,057,,87,30,319,*5C
$GPGSA,A,3,02,06,12,19,25,32,,,,,,,2.0,1.9,0.8*39
$GPVTG,,T,,M,0.0,N,0.0,K,A*23
$GPRMC,175147,A,3437.017601,S,05822.169316,W,0.0,,161117,5.4,W,A*2C
$GPGGA,175147,3437.017601,S,05822.169316,W,1,06,1.9,-23.0,M,22.0,M,,*5B
$GPGSV,3,1,10,02,55,085,21,06,29,127,28,12,62,163,21,14,09,230,22*78
$GPGSV,3,2,10,19,06,129,25,25,41,224,21,32,12,248,22,05,00,000,*76
$GPGSV,3,3,10,24,00,000,,29,39,289,*7C
$GLGSV,2,1,07,75,49,057,21,85,27,149,21,74,00,000,,86,82,215,*69
$GLGSV,2,2,07,77,13,213,,76,68,182,,87,30,319,*53
$GPGSA,A,3,02,06,12,14,19,25,32,,,,,,1.5,1.2,0.8*31
$GPVTG,,T,,M,0.0,N,0.0,K,A*23
$GPRMC,175148,A,3437.019128,S,05822.171615,W,0.0,,161117,5.4,W,A*2E
$GPGGA,175148,3437.019128,S,05822.171615,W,1,07,1.2,-8.0,M,22.0,M,,*6A
$GPGSV,3,1,10,02,55,085,17,06,29,127,18,12,62,163,21,14,09,230,22*7E
$GPGSV,3,2,10,19,06,129,20,25,41,224,21,32,12,248,22,05,00,000,*73
$GPGSV,3,3,10,24,00,000,,29,39,289,*7C
$GLGSV,2,1,07,75,49,057,20,85,27,149,18,74,00,000,,86,82,215,*62
$GLGSV,2,2,07,77,13,213,,76,68,182,,87,30,319,*53
$GPGSA,A,3,02,06,12,14,19,25,32,,,,,,1.5,1.2,0.8*31
$GPVTG,,T,,M,0.0,N,0.0,K,A*23
$GPRMC,175149,A,3437.020659,S,05822.171338,W,0.0,,161117,5.4,W,A*2E
$GPGGA,175149,3437.020659,S,05822.171338,W,1,07,1.2,-9.0,M,22.0,M,,*6B
$GPGSV,3,1,10,02,55,085,17,06,29,127,18,12,62,163,21,14,09,230,22*7E
$GPGSV,3,2,10,19,06,129,22,25,41,224,21,32,12,248,14,05,00,000,*74
$GPGSV,3,3,10,24,00,000,,29,39,289,*7C
$GLGSV,2,1,07,75,49,057,20,85,27,149,20,74,00,000,,86,82,215,*69
$GLGSV,2,2,07,77,13,213,,76,68,182,,87,30,319,*53
$GPGSA,A,3,02,06,12,14,19,25,32,,,,,,1.5,1.2,0.8*31
$GPVTG,,T,,M,0.0,N,0.0,K,A*23
$GPRMC,175150,A,3437.023430,S,05822.171114,W,0.0,,161117,5.4,W,A*24
$GPGGA,175150,3437.023430,S,05822.171114,W,1,07,1.2,-4.0,M,22.0,M,,*6C
$GPGSV,3,1,10,02,55,085,16,06,29,127,19,12,62,163,21,14,09,230,14*7B
$GPGSV,3,2,10,19,06,129,25,25,41,224,21,32,12,248,14,05,00,000,*73
$GPGSV,3,3,10,24,00,000,,29,39,289,*7C
$GLGSV,2,1,07,76,68,182,14,75,49,057,14,85,27,149,24,74,00,000,*69
$GLGSV,2,2,07,86,82,215,,77,13,213,,87,30,319,*55
$GPGSA,A,3,02,06,12,14,19,25,32,,,,,,1.5,1.2,0.8*31
$GPVTG,,T,,M,0.0,N,0.0,K,A*23
$GPRMC,175151,A,3437.022398,S,05822.171367,W,0.0,,161117,5.4,W,A*27
$GPGGA,175151,3437.022398,S,05822.171367,W,1,07,1.2,-6.0,M,22.0,M,,*6D
$GPGSV,3,1,10,02,55,085,16,06,29,127,18,12,62,163,13,14,09,230,17*78
$GPGSV,3,2,10,19,06,129,24,25,41,224,14,32,12,248,14,05,00,000,*74
$GPGSV,3,3,10,24,00,000,,29,39,289,*7C
$GLGSV,2,1,07,76,68,182,13,75,49,057,14,85,27,149,19,74,00,000,*60
$GLGSV,2,2,07,86,82,215,,77,13,213,,87,30,319,*55
$GPGSA,A,3,02,06,12,14,19,25,32,,,,,,1.5,1.2,0.8*31
$GPVTG,,T,,M,0.0,N,0.0,K,A*23
$GPRMC,175152,A,3437.021744,S,05822.171407,W,0.0,,161117,5.4,W,A*23
$GPGGA,175152,3437.021744,S,05822.171407,W,1,07,1.2,-8.0,M,22.0,M,,*67
$GPGSV,3,1,10,02,55,085,16,06,29,127,18,12,62,163,13,14,09,230,17*78
$GPGSV,3,2,10,19,06,129,24,25,41,224,14,32,12,248,14,05,00,000,*74
$GPGSV,3,3,10,24,00,000,,29,39,289,*7C
$GLGSV,2,1,07,76,68,182,12,75,49,057,14,85,27,149,16,74,00,000,*6E
$GLGSV,2,2,07,86,82,215,,77,13,213,,87,30,319,*55
$GPGSA,A,3,02,06,12,14,19,25,32,,,,,,1.5,1.2,0.8*31
$GPVTG,,T,,M,0.0,N,0.0,K,A*23
$GPRMC,175153,A,3437.022085,S,05822.171405,W,0.0,,161117,5.4,W,A*29
$GPGGA,175153,3437.022085,S,05822.171405,W,1,07,1.2,-7.0,M,22.0,M,,*62
$GPGSV,3,1,10,02,55,085,16,06,29,127,18,12,62,163,13,14,09,230,17*78
$GPGSV,3,2,10,19,06,129,24,25,41,224,14,32,12,248,14,05,00,000,*74
$GPGSV,3,3,10,24,00,000,,29,39,289,*7C
$GLGSV,2,1,07,76,68,182,12,75,49,057,14,85,27,149,16,74,00,000,*6E
$GLGSV,2,2,07,86,82,215,,77,13,213,,87,30,319,*55
$GPGSA,A,3,02,06,12,14,19,25,32,,,,,,1.5,1.2,0.8*31
$GPVTG,,T,,M,0.0,N,0.0,K,A*23
$GPRMC,175154,A,3437.022085,S,05822.171405,W,0.0,,161117,5.4,W,A*2E
$GPGGA,175154,3437.022085,S,05822.171405,W,1,07,1.2,-7.0,M,22.0,M,,*65
$GPGSV,3,1,10,02,55,085,16,06,29,127,18,12,62,163,13,14,09,230,17*78
$GPGSV,3,2,10,19,06,129,24,25,41,224,14,32,12,248,14,05,00,000,*74
$GPGSV,3,3,10,24,00,000,,29,39,289,*7C
$GLGSV,2,1,07,76,68,182,12,75,49,057,14,85,27,149,16,74,00,000,*6E
$GLGSV,2,2,07,86,82,215,,77,13,213,,87,30,319,*55
$GPGSA,A,3,02,06,12,14,19,25,32,,,,,,1.5,1.2,0.8*31
$GPVTG,,T,,M,0.0,N,0.0,K,A*23
$GPRMC,175155,A,3437.022085,S,05822.171405,W,0.0,,161117,5.4,W,A*2F
$GPGGA,175155,3437.022085,S,05822.171405,W,1,07,1.2,-7.0,M,22.0,M,,*64
$GPGSV,3,1,10,02,55,085,16,06,29,127,18,12,62,163,13,14,09,230,17*78
$GPGSV,3,2,10,19,06,129,15,25,41,224,14,32,12,248,14,05,00,000,*76
$GPGSV,3,3,10,24,00,000,,29,39,289,*7C
$GLGSV,2,1,07,76,68,182,12,75,49,057,12,85,27,149,16,74,00,000,*68
$GLGSV,2,2,07,86,82,215,,77,13,213,,87,30,319,*55
$GPGSA,A,3,02,06,12,14,19,25,32,,,,,,1.6,1.3,0.8*33
$GPVTG,,T,,M,0.0,N,0.0,K,A*23
$GPRMC,175156,A,3437.022671,S,05822.171424,W,0.0,,161117,5.4,W,A*22
$GPGGA,175156,3437.022671,S,05822.171424,W,1,07,1.3,-7.0,M,22.0,M,,*68
$GPGSV,3,1,10,02,55,085,16,06,29,127,13,12,62,163,13,14,09,230,17*73
$GPGSV,3,2,10,19,06,129,15,25,41,224,14,32,12,248,14,05,00,000,*76
$GPGSV,3,3,10,24,00,000,,29,39,289,*7C
$GLGSV,2,1,07,76,68,182,12,75,49,056,21,85,27,149,16,74,00,000,*69
$GLGSV,2,2,07,86,82,215,,77,13,213,,87,30,319,*55
$GPGSA,A,3,02,06,12,14,19,25,32,,,,,,1.6,1.4,0.8*34
$GPVTG,,T,,M,0.0,N,0.0,K,A*23
$GPRMC,175157,A,3437.019550,S,05822.171294,W,0.0,,161117,5.4,W,A*26
$GPGGA,175157,3437.019550,S,05822.171294,W,1,07,1.4,-8.0,M,22.0,M,,*64
$GPGSV,3,1,10,02,55,087,16,06,29,127,18,12,62,163,13,14,09,230,17*7A
$GPGSV,3,2,10,19,06,129,17,25,41,224,14,32,12,248,14,05,00,000,*74
$GPGSV,3,3,10,24,00,000,,29,39,289,*7C
$GLGSV,2,1,07,76,68,182,12,75,49,056,21,85,27,149,16,74,00,000,*69
$GLGSV,2,2,07,86,82,215,,77,13,213,,87,30,319,*55
$GPGSA,A,3,02,06,12,14,19,25,32,,,,,,2.6,2.4,1.0*3D
$GPVTG,,T,,M,0.0,N,0.0,K,A*23
$GPRMC,175158,A,3437.021379,S,05822.171484,W,0.0,,161117,5.4,W,A*28
$GPGGA,175158,3437.021379,S,05822.171484,W,1,07,2.4,-7.0,M,22.0,M,,*66
$GPGSV,3,1,10,02,55,087,14,06,29,127,18,12,62,163,13,14,09,230,17*78
$GPGSV,3,2,10,19,06,129,21,25,41,224,14,32,12,248,14,05,00,000,*71
$GPGSV,3,3,10,24,00,000,,29,39,289,*7C
$GLGSV,2,1,07,76,68,182,12,75,49,056,26,85,27,149,17,74,00,000,*6F
$GLGSV,2,2,07,86,82,215,,77,13,213,,87,30,319,*55
$GPGSA,A,3,02,06,12,14,19,25,32,,,,,,5.3,5.3,1.0*3F
$GPVTG,,T,,M,0.0,N,0.0,K,A*23
$GPRMC,175159,A,3437.014232,S,05822.171280,W,0.0,,161117,5.4,W,A*23
$GPGGA,175159,3437.014232,S,05822.171280,W,1,07,5.3,-9.0,M,22.0,M,,*63
$GPGSV,3,1,10,02,55,087,14,06,29,127,18,12,62,163,13,14,09,230,17*78
$GPGSV,3,2,10,19,06,129,19,25,41,224,14,32,12,248,14,05,00,000,*7A
$GPGSV,3,3,10,24,00,000,,29,39,289,*7C
$GLGSV,2,1,07,76,68,182,12,75,49,056,18,85,27,149,17,74,00,000,*62
$GLGSV,2,2,07,86,82,215,,77,13,213,,87,30,319,*55
$GPGSA,A,3,02,06,12,14,19,25,32,,,,,,5.3,5.3,1.0*3F
$GPVTG,,T,,M,0.0,N,0.0,K,A*23
$GPRMC,175200,A,3437.014536,S,05822.171318,W,0.0,,161117,5.4,W,A*2F
$GPGGA,175200,3437.014536,S,05822.171318,W,1,07,5.3,-8.0,M,22.0,M,,*6E
$GPGSV,3,1,10,02,55,087,16,06,29,127,15,12,62,163,13,14,09,230,17*77
$GPGSV,3,2,10,19,06,129,26,25,41,224,14,32,12,248,14,05,00,000,*76
$GPGSV,3,3,10,24,00,000,,29,39,289,*7C
$GLGSV,2,1,07,76,68,182,12,75,49,056,20,85,27,149,18,74,00,000,*66
$GLGSV,2,2,07,86,82,215,,77,13,213,,87,30,319,*55
$GPGSA,A,3,02,06,12,14,19,25,32,,,,,,5.3,5.3,1.0*3F
$GPVTG,,T,,M,0.0,N,0.0,K,A*23
$GPRMC,175201,A,3437.013260,S,05822.171300,W,0.0,,161117,5.4,W,A*24
$GPGGA,175201,3437.013260,S,05822.171300,W,1,07,5.3,-9.0,M,22.0,M,,*64
$GPGSV,3,1,10,02,55,087,16,06,29,127,15,12,62,163,12,14,09,230,17*76
$GPGSV,3,2,10,19,06,129,21,25,41,224,14,32,12,248,10,05,00,000,*75
$GPGSV,3,3,10,24,00,000,,29,39,289,*7C
$GLGSV,2,1,07,76,68,182,12,75,49,056,19,85,27,149,20,74,00,000,*67
$GLGSV,2,2,07,86,82,215,,77,13,213,,87,30,319,*55
$GPGSA,A,3,02,06,12,14,19,25,32,,,,,,1.6,1.3,0.9*32
$GPVTG,,T,,M,0.0,N,0.0,K,A*23
$GPRMC,175202,A,3437.012472,S,05822.171257,W,0.0,,161117,5.4,W,A*20
$GPGGA,175202,3437.012472,S,05822.171257,W,1,07,1.3,-9.0,M,22.0,M,,*64
